[
  {
    "coords": {
      "lat": "52.65",
      "lon": "90.083333333333"
    },
    "city": "Абаза"
  },
  {
    "coords": {
      "lat": "53.71667",
      "lon": "91.41667"
    },
    "city": "Абакан"
  },
  {
    "coords": {
      "lat": "53.68333",
      "lon": "53.65"
    },
    "city": "Абдулино"
  },
  {
    "coords": {
      "lat": "44.86667",
      "lon": "38.16667"
    },
    "city": "Абинск"
  },
  {
    "coords": {
      "lat": "55.9",
      "lon": "53.93333"
    },
    "city": "Агидель"
  },
  {
    "coords": {
      "lat": "56.51667",
      "lon": "52.98333"
    },
    "city": "Агрыз"
  },
  {
    "coords": {
      "lat": "44.884525",
      "lon": "39.19202"
    },
    "city": "Адыгейск"
  },
  {
    "coords": {
      "lat": "54.85",
      "lon": "53.06667"
    },
    "city": "Азнакаево"
  },
  {
    "coords": {
      "lat": "47.1",
      "lon": "39.41667"
    },
    "city": "Азов"
  },
  {
    "coords": {
      "lat": "51.16667",
      "lon": "90.6"
    },
    "city": "Ак-Довурак"
  },
  {
    "coords": {
      "lat": "47.26667",
      "lon": "39.86667"
    },
    "city": "Аксай"
  },
  {
    "coords": {
      "lat": "43.04167",
      "lon": "44.21056"
    },
    "city": "Алагир"
  },
  {
    "coords": {
      "lat": "57.85",
      "lon": "61.7"
    },
    "city": "Алапаевск"
  },
  {
    "coords": {
      "lat": "54.85",
      "lon": "46.58333"
    },
    "city": "Алатырь"
  },
  {
    "coords": {
      "lat": "58.6",
      "lon": "125.38333"
    },
    "city": "Алдан"
  },
  {
    "coords": {
      "lat": "52.5",
      "lon": "82.78333"
    },
    "city": "Алейск"
  },
  {
    "coords": {
      "lat": "56.39361",
      "lon": "38.715"
    },
    "city": "Александров"
  },
  {
    "coords": {
      "lat": "50.9",
      "lon": "142.15"
    },
    "city": "Александровск-Сахалинский"
  },
  {
    "coords": {
      "lat": "59.16667",
      "lon": "57.58333"
    },
    "city": "Александровск"
  },
  {
    "coords": {
      "lat": "50.63",
      "lon": "38.68639"
    },
    "city": "Алексеевка"
  },
  {
    "coords": {
      "lat": "54.5",
      "lon": "37.06667"
    },
    "city": "Алексин"
  },
  {
    "coords": {
      "lat": "55.55",
      "lon": "98.66667"
    },
    "city": "Алзамай"
  },
  {
    "coords": {
      "lat": "44.41972",
      "lon": "34.04306"
    },
    "city": "Алупка"
  },
  {
    "coords": {
      "lat": "44.66722",
      "lon": "34.39778"
    },
    "city": "Алушта"
  },
  {
    "coords": {
      "lat": "54.9",
      "lon": "52.3"
    },
    "city": "Альметьевск"
  },
  {
    "coords": {
      "lat": "50.21667",
      "lon": "136.9"
    },
    "city": "Амурск"
  },
  {
    "coords": {
      "lat": "64.73333",
      "lon": "177.51667"
    },
    "city": "Анадырь"
  },
  {
    "coords": {
      "lat": "44.893857",
      "lon": "37.317481"
    },
    "city": "Анапа"
  },
  {
    "coords": {
      "lat": "52.56667",
      "lon": "103.91667"
    },
    "city": "Ангарск"
  },
  {
    "coords": {
      "lat": "56.65",
      "lon": "32.26667"
    },
    "city": "Андреаполь"
  },
  {
    "coords": {
      "lat": "56.08333",
      "lon": "86.03333"
    },
    "city": "Анжеро-Судженск"
  },
  {
    "coords": {
      "lat": "46.71667",
      "lon": "142.51667"
    },
    "city": "Анива"
  },
  {
    "coords": {
      "lat": "67.5675",
      "lon": "33.39333"
    },
    "city": "Апатиты"
  },
  {
    "coords": {
      "lat": "55.53333",
      "lon": "37.05"
    },
    "city": "Апрелевка"
  },
  {
    "coords": {
      "lat": "44.46083",
      "lon": "39.74056"
    },
    "city": "Апшеронск"
  },
  {
    "coords": {
      "lat": "56.7",
      "lon": "60.83333"
    },
    "city": "Арамиль"
  },
  {
    "coords": {
      "lat": "43.292095",
      "lon": "45.876622"
    },
    "city": "Аргун"
  },
  {
    "coords": {
      "lat": "54.85",
      "lon": "46.23333"
    },
    "city": "Ардатов"
  },
  {
    "coords": {
      "lat": "43.17278",
      "lon": "44.29222"
    },
    "city": "Ардон"
  },
  {
    "coords": {
      "lat": "55.38333",
      "lon": "43.8"
    },
    "city": "Арзамас"
  },
  {
    "coords": {
      "lat": "51.93333",
      "lon": "43.5"
    },
    "city": "Аркадак"
  },
  {
    "coords": {
      "lat": "44.99464",
      "lon": "41.12946"
    },
    "city": "Армавир"
  },
  {
    "coords": {
      "lat": "46.10694",
      "lon": "33.69306"
    },
    "city": "Армянск"
  },
  {
    "coords": {
      "lat": "44.16667",
      "lon": "133.26667"
    },
    "city": "Арсеньев"
  },
  {
    "coords": {
      "lat": "56.09056",
      "lon": "49.87639"
    },
    "city": "Арск"
  },
  {
    "coords": {
      "lat": "43.35",
      "lon": "132.18333"
    },
    "city": "Артём"
  },
  {
    "coords": {
      "lat": "54.35",
      "lon": "93.43333"
    },
    "city": "Артёмовск"
  },
  {
    "coords": {
      "lat": "57.33639",
      "lon": "61.89194"
    },
    "city": "Артёмовский"
  },
  {
    "coords": {
      "lat": "64.55",
      "lon": "40.53333"
    },
    "city": "Архангельск"
  },
  {
    "coords": {
      "lat": "57.01027679",
      "lon": "61.45639038"
    },
    "city": "Асбест"
  },
  {
    "coords": {
      "lat": "57",
      "lon": "86.15"
    },
    "city": "Асино"
  },
  {
    "coords": {
      "lat": "46.33333",
      "lon": "48.03333"
    },
    "city": "Астрахань"
  },
  {
    "coords": {
      "lat": "51.86667",
      "lon": "45"
    },
    "city": "Аткарск"
  },
  {
    "coords": {
      "lat": "48.28333",
      "lon": "46.16667"
    },
    "city": "Ахтубинск"
  },
  {
    "coords": {
      "lat": "56.26667",
      "lon": "90.5"
    },
    "city": "Ачинск"
  },
  {
    "coords": {
      "lat": "43.189155",
      "lon": "45.284741"
    },
    "city": "Ачхой-Мартан"
  },
  {
    "coords": {
      "lat": "55",
      "lon": "57.25"
    },
    "city": "Аша"
  },
  {
    "coords": {
      "lat": "59.38333",
      "lon": "35.95"
    },
    "city": "Бабаево"
  },
  {
    "coords": {
      "lat": "51.71667",
      "lon": "105.86667"
    },
    "city": "Бабушкин"
  },
  {
    "coords": {
      "lat": "54.4",
      "lon": "53.25"
    },
    "city": "Бавлы"
  },
  {
    "coords": {
      "lat": "54.38333",
      "lon": "20.63333"
    },
    "city": "Багратионовск"
  },
  {
    "coords": {
      "lat": "51.51722",
      "lon": "104.15611"
    },
    "city": "Байкальск"
  },
  {
    "coords": {
      "lat": "52.58333",
      "lon": "58.31667"
    },
    "city": "Баймак"
  },
  {
    "coords": {
      "lat": "54.93333",
      "lon": "58.8"
    },
    "city": "Бакал"
  },
  {
    "coords": {
      "lat": "43.683333",
      "lon": "43.533333"
    },
    "city": "Баксан"
  },
  {
    "coords": {
      "lat": "55.18333",
      "lon": "36.65"
    },
    "city": "Балабаново"
  },
  {
    "coords": {
      "lat": "44.5",
      "lon": "33.6"
    },
    "city": "Балаклава"
  },
  {
    "coords": {
      "lat": "52.03333",
      "lon": "47.78333"
    },
    "city": "Балаково"
  },
  {
    "coords": {
      "lat": "56.48083",
      "lon": "43.54028"
    },
    "city": "Балахна"
  },
  {
    "coords": {
      "lat": "55.8",
      "lon": "37.93333"
    },
    "city": "Балашиха"
  },
  {
    "coords": {
      "lat": "51.55",
      "lon": "43.16667"
    },
    "city": "Балашов"
  },
  {
    "coords": {
      "lat": "51.57694",
      "lon": "116.64917"
    },
    "city": "Балей"
  },
  {
    "coords": {
      "lat": "54.65",
      "lon": "19.91667"
    },
    "city": "Балтийск"
  },
  {
    "coords": {
      "lat": "55.35",
      "lon": "78.35"
    },
    "city": "Барабинск"
  },
  {
    "coords": {
      "lat": "53.347361",
      "lon": "83.77833"
    },
    "city": "Барнаул"
  },
  {
    "coords": {
      "lat": "53.65",
      "lon": "47.11667"
    },
    "city": "Барыш"
  },
  {
    "coords": {
      "lat": "47.13333",
      "lon": "39.75"
    },
    "city": "Батайск"
  },
  {
    "coords": {
      "lat": "44.75278",
      "lon": "33.86083"
    },
    "city": "Бахчисарай"
  },
  {
    "coords": {
      "lat": "57.78333",
      "lon": "36.7"
    },
    "city": "Бежецк"
  },
  {
    "coords": {
      "lat": "48.17472",
      "lon": "40.79306"
    },
    "city": "Белая Калитва"
  },
  {
    "coords": {
      "lat": "58.83333",
      "lon": "50.85"
    },
    "city": "Белая Холуница"
  },
  {
    "coords": {
      "lat": "50.6",
      "lon": "36.6"
    },
    "city": "Белгород"
  },
  {
    "coords": {
      "lat": "54.1",
      "lon": "54.13333"
    },
    "city": "Белебей"
  },
  {
    "coords": {
      "lat": "52.96667",
      "lon": "43.41667"
    },
    "city": "Белинский"
  },
  {
    "coords": {
      "lat": "54.416666666667",
      "lon": "86.3"
    },
    "city": "Белово"
  },
  {
    "coords": {
      "lat": "50.91667",
      "lon": "128.48333"
    },
    "city": "Белогорск"
  },
  {
    "coords": {
      "lat": "45.05444",
      "lon": "34.60222"
    },
    "city": "Белогорск"
  },
  {
    "coords": {
      "lat": "60.03333",
      "lon": "37.78333"
    },
    "city": "Белозерск"
  },
  {
    "coords": {
      "lat": "52",
      "lon": "84.98333"
    },
    "city": "Белокуриха"
  },
  {
    "coords": {
      "lat": "64.51667",
      "lon": "34.76667"
    },
    "city": "Беломорск"
  },
  {
    "coords": {
      "lat": "55.46139",
      "lon": "38.44222"
    },
    "city": "Белоозёрский"
  },
  {
    "coords": {
      "lat": "53.96667",
      "lon": "58.4"
    },
    "city": "Белорецк"
  },
  {
    "coords": {
      "lat": "44.76667",
      "lon": "39.86667"
    },
    "city": "Белореченск"
  },
  {
    "coords": {
      "lat": "55.09167",
      "lon": "36.66667"
    },
    "city": "Белоусово"
  },
  {
    "coords": {
      "lat": "63.71667",
      "lon": "66.66667"
    },
    "city": "Белоярский"
  },
  {
    "coords": {
      "lat": "55.83333",
      "lon": "32.93333"
    },
    "city": "Белый"
  },
  {
    "coords": {
      "lat": "53.8",
      "lon": "36.13333"
    },
    "city": "Белёв"
  },
  {
    "coords": {
      "lat": "54.75",
      "lon": "83.1"
    },
    "city": "Бердск"
  },
  {
    "coords": {
      "lat": "59.40806",
      "lon": "56.80528"
    },
    "city": "Березники"
  },
  {
    "coords": {
      "lat": "55.66667",
      "lon": "86.25"
    },
    "city": "Берёзовский"
  },
  {
    "coords": {
      "lat": "56.9",
      "lon": "60.8"
    },
    "city": "Берёзовский"
  },
  {
    "coords": {
      "lat": "43.18889",
      "lon": "44.521691"
    },
    "city": "Беслан"
  },
  {
    "coords": {
      "lat": "52.51667",
      "lon": "85.16667"
    },
    "city": "Бийск"
  },
  {
    "coords": {
      "lat": "46.81667",
      "lon": "134.25"
    },
    "city": "Бикин"
  },
  {
    "coords": {
      "lat": "68.05",
      "lon": "166.45"
    },
    "city": "Билибино"
  },
  {
    "coords": {
      "lat": "48.78333",
      "lon": "132.93333"
    },
    "city": "Биробиджан"
  },
  {
    "coords": {
      "lat": "55.41667",
      "lon": "55.53333"
    },
    "city": "Бирск"
  },
  {
    "coords": {
      "lat": "55.95",
      "lon": "97.81667"
    },
    "city": "Бирюсинск"
  },
  {
    "coords": {
      "lat": "50.65",
      "lon": "38.4"
    },
    "city": "Бирюч"
  },
  {
    "coords": {
      "lat": "50.25778",
      "lon": "127.53639"
    },
    "city": "Благовещенск"
  },
  {
    "coords": {
      "lat": "55.03333",
      "lon": "55.98333"
    },
    "city": "Благовещенск"
  },
  {
    "coords": {
      "lat": "45.1029039",
      "lon": "43.4251513"
    },
    "city": "Благодарный"
  },
  {
    "coords": {
      "lat": "51.09444",
      "lon": "40.03222"
    },
    "city": "Бобров"
  },
  {
    "coords": {
      "lat": "56.78333",
      "lon": "62.05"
    },
    "city": "Богданович"
  },
  {
    "coords": {
      "lat": "53.76667",
      "lon": "38.13333"
    },
    "city": "Богородицк"
  },
  {
    "coords": {
      "lat": "56.09972",
      "lon": "43.50722"
    },
    "city": "Богородск"
  },
  {
    "coords": {
      "lat": "56.2",
      "lon": "89.51667"
    },
    "city": "Боготол"
  },
  {
    "coords": {
      "lat": "49.93333",
      "lon": "40.55"
    },
    "city": "Богучар"
  },
  {
    "coords": {
      "lat": "57.85",
      "lon": "114.2"
    },
    "city": "Бодайбо"
  },
  {
    "coords": {
      "lat": "59.473576",
      "lon": "33.847675"
    },
    "city": "Бокситогорск"
  },
  {
    "coords": {
      "lat": "54.96667",
      "lon": "49.03333"
    },
    "city": "Болгар"
  },
  {
    "coords": {
      "lat": "57.87083",
      "lon": "34.07361"
    },
    "city": "Бологое"
  },
  {
    "coords": {
      "lat": "55.66667",
      "lon": "84.4"
    },
    "city": "Болотное"
  },
  {
    "coords": {
      "lat": "54.08333",
      "lon": "37.81667"
    },
    "city": "Болохово"
  },
  {
    "coords": {
      "lat": "53.45",
      "lon": "36"
    },
    "city": "Болхов"
  },
  {
    "coords": {
      "lat": "43.11667",
      "lon": "132.35"
    },
    "city": "Большой Камень"
  },
  {
    "coords": {
      "lat": "56.36028",
      "lon": "44.05917"
    },
    "city": "Бор"
  },
  {
    "coords": {
      "lat": "50.38333",
      "lon": "116.53333"
    },
    "city": "Борзя"
  },
  {
    "coords": {
      "lat": "51.36667",
      "lon": "42.08333"
    },
    "city": "Борисоглебск"
  },
  {
    "coords": {
      "lat": "58.38694",
      "lon": "33.91139"
    },
    "city": "Боровичи"
  },
  {
    "coords": {
      "lat": "55.2",
      "lon": "36.48333"
    },
    "city": "Боровск"
  },
  {
    "coords": {
      "lat": "55.9",
      "lon": "94.9"
    },
    "city": "Бородино"
  },
  {
    "coords": {
      "lat": "56.152",
      "lon": "101.633"
    },
    "city": "Братск"
  },
  {
    "coords": {
      "lat": "55.42278",
      "lon": "38.25889"
    },
    "city": "Бронницы"
  },
  {
    "coords": {
      "lat": "53.25",
      "lon": "34.36667"
    },
    "city": "Брянск"
  },
  {
    "coords": {
      "lat": "54.53333",
      "lon": "52.78333"
    },
    "city": "Бугульма"
  },
  {
    "coords": {
      "lat": "53.61667",
      "lon": "52.41667"
    },
    "city": "Бугуруслан"
  },
  {
    "coords": {
      "lat": "44.79",
      "lon": "44.14"
    },
    "city": "Будённовск"
  },
  {
    "coords": {
      "lat": "52.76667",
      "lon": "52.26667"
    },
    "city": "Бузулук"
  },
  {
    "coords": {
      "lat": "54.96667",
      "lon": "48.28333"
    },
    "city": "Буинск"
  },
  {
    "coords": {
      "lat": "58.48333",
      "lon": "41.51667"
    },
    "city": "Буй"
  },
  {
    "coords": {
      "lat": "42.81667",
      "lon": "47.11667"
    },
    "city": "Буйнакск"
  },
  {
    "coords": {
      "lat": "50.825",
      "lon": "40.58889"
    },
    "city": "Бутурлиновка"
  },
  {
    "coords": {
      "lat": "57.96667",
      "lon": "33.25"
    },
    "city": "Валдай"
  },
  {
    "coords": {
      "lat": "50.18333",
      "lon": "38.11667"
    },
    "city": "Валуйки"
  },
  {
    "coords": {
      "lat": "55.6",
      "lon": "31.2"
    },
    "city": "Велиж"
  },
  {
    "coords": {
      "lat": "56.35",
      "lon": "30.51667"
    },
    "city": "Великие Луки"
  },
  {
    "coords": {
      "lat": "58.525",
      "lon": "31.275"
    },
    "city": "Великий Новгород"
  },
  {
    "coords": {
      "lat": "60.75889",
      "lon": "46.30389"
    },
    "city": "Великий Устюг"
  },
  {
    "coords": {
      "lat": "61.06667",
      "lon": "42.1"
    },
    "city": "Вельск"
  },
  {
    "coords": {
      "lat": "54.35",
      "lon": "38.26667"
    },
    "city": "Венёв"
  },
  {
    "coords": {
      "lat": "58.06667",
      "lon": "54.65"
    },
    "city": "Верещагино"
  },
  {
    "coords": {
      "lat": "55.33333",
      "lon": "36.18333"
    },
    "city": "Верея"
  },
  {
    "coords": {
      "lat": "53.88333",
      "lon": "59.21667"
    },
    "city": "Верхнеуральск"
  },
  {
    "coords": {
      "lat": "57.38333",
      "lon": "59.93333"
    },
    "city": "Верхний Тагил"
  },
  {
    "coords": {
      "lat": "56.05",
      "lon": "60.23333"
    },
    "city": "Верхний Уфалей"
  },
  {
    "coords": {
      "lat": "56.966666666667",
      "lon": "60.583333333333"
    },
    "city": "Верхняя Пышма"
  },
  {
    "coords": {
      "lat": "58.05",
      "lon": "60.55"
    },
    "city": "Верхняя Салда"
  },
  {
    "coords": {
      "lat": "58.3574333",
      "lon": "59.8224444"
    },
    "city": "Верхняя Тура"
  },
  {
    "coords": {
      "lat": "58.86667",
      "lon": "60.8"
    },
    "city": "Верхотурье"
  },
  {
    "coords": {
      "lat": "67.55",
      "lon": "133.38333"
    },
    "city": "Верхоянск"
  },
  {
    "coords": {
      "lat": "58.65",
      "lon": "37.26667"
    },
    "city": "Весьегонск"
  },
  {
    "coords": {
      "lat": "57.85556",
      "lon": "45.78111"
    },
    "city": "Ветлуга"
  },
  {
    "coords": {
      "lat": "55.55",
      "lon": "37.7"
    },
    "city": "Видное"
  },
  {
    "coords": {
      "lat": "63.75",
      "lon": "121.61667"
    },
    "city": "Вилюйск"
  },
  {
    "coords": {
      "lat": "52.93333",
      "lon": "158.4"
    },
    "city": "Вилючинск"
  },
  {
    "coords": {
      "lat": "56.11667",
      "lon": "101.16667"
    },
    "city": "Вихоревка"
  },
  {
    "coords": {
      "lat": "57.2",
      "lon": "41.91667"
    },
    "city": "Вичуга"
  },
  {
    "coords": {
      "lat": "43.116666666667",
      "lon": "131.9"
    },
    "city": "Владивосток"
  },
  {
    "coords": {
      "lat": "43.01667",
      "lon": "44.683315"
    },
    "city": "Владикавказ"
  },
  {
    "coords": {
      "lat": "56.13333",
      "lon": "40.41667"
    },
    "city": "Владимир"
  },
  {
    "coords": {
      "lat": "48.71167",
      "lon": "44.51389"
    },
    "city": "Волгоград"
  },
  {
    "coords": {
      "lat": "47.54",
      "lon": "42.20722"
    },
    "city": "Волгодонск"
  },
  {
    "coords": {
      "lat": "57.43333",
      "lon": "41.16667"
    },
    "city": "Волгореченск"
  },
  {
    "coords": {
      "lat": "55.86667",
      "lon": "48.35"
    },
    "city": "Волжск"
  },
  {
    "coords": {
      "lat": "48.783333333333",
      "lon": "44.766666666667"
    },
    "city": "Волжский"
  },
  {
    "coords": {
      "lat": "59.216666666667",
      "lon": "39.9"
    },
    "city": "Вологда"
  },
  {
    "coords": {
      "lat": "56.23333",
      "lon": "43.2"
    },
    "city": "Володарск"
  },
  {
    "coords": {
      "lat": "56.03333",
      "lon": "35.95"
    },
    "city": "Волоколамск"
  },
  {
    "coords": {
      "lat": "59.447275",
      "lon": "29.484819"
    },
    "city": "Волосово"
  },
  {
    "coords": {
      "lat": "59.900543",
      "lon": "32.352681"
    },
    "city": "Волхов"
  },
  {
    "coords": {
      "lat": "59.93333",
      "lon": "60.05"
    },
    "city": "Волчанск"
  },
  {
    "coords": {
      "lat": "52.05",
      "lon": "47.38333"
    },
    "city": "Вольск"
  },
  {
    "coords": {
      "lat": "67.5",
      "lon": "64.03333"
    },
    "city": "Воркута"
  },
  {
    "coords": {
      "lat": "51.67167",
      "lon": "39.21056"
    },
    "city": "Воронеж"
  },
  {
    "coords": {
      "lat": "55.98333",
      "lon": "43.26667"
    },
    "city": "Ворсма"
  },
  {
    "coords": {
      "lat": "55.32333",
      "lon": "38.68056"
    },
    "city": "Воскресенск"
  },
  {
    "coords": {
      "lat": "57.05",
      "lon": "54"
    },
    "city": "Воткинск"
  },
  {
    "coords": {
      "lat": "60.021321",
      "lon": "30.654084"
    },
    "city": "Всеволожск"
  },
  {
    "coords": {
      "lat": "63.86667",
      "lon": "57.31667"
    },
    "city": "Вуктыл"
  },
  {
    "coords": {
      "lat": "60.710496",
      "lon": "28.749781"
    },
    "city": "Выборг"
  },
  {
    "coords": {
      "lat": "55.31944",
      "lon": "42.17306"
    },
    "city": "Выкса"
  },
  {
    "coords": {
      "lat": "56.31667",
      "lon": "36.55"
    },
    "city": "Высоковск"
  },
  {
    "coords": {
      "lat": "60.625604",
      "lon": "28.568277"
    },
    "city": "Высоцк"
  },
  {
    "coords": {
      "lat": "61",
      "lon": "36.45"
    },
    "city": "Вытегра"
  },
  {
    "coords": {
      "lat": "57.58333",
      "lon": "34.56667"
    },
    "city": "Вышний Волочёк"
  },
  {
    "coords": {
      "lat": "47.53333",
      "lon": "134.75"
    },
    "city": "Вяземский"
  },
  {
    "coords": {
      "lat": "56.24333",
      "lon": "42.12917"
    },
    "city": "Вязники"
  },
  {
    "coords": {
      "lat": "55.21028",
      "lon": "34.285"
    },
    "city": "Вязьма"
  },
  {
    "coords": {
      "lat": "56.218417",
      "lon": "51.068583"
    },
    "city": "Вятские Поляны"
  },
  {
    "coords": {
      "lat": "56.56667",
      "lon": "40.11667"
    },
    "city": "Гаврилов Посад"
  },
  {
    "coords": {
      "lat": "57.3",
      "lon": "39.85"
    },
    "city": "Гаврилов-Ям"
  },
  {
    "coords": {
      "lat": "55.55",
      "lon": "35"
    },
    "city": "Гагарин"
  },
  {
    "coords": {
      "lat": "69.25528",
      "lon": "33.31667"
    },
    "city": "Гаджиево"
  },
  {
    "coords": {
      "lat": "51.46667",
      "lon": "58.45"
    },
    "city": "Гай"
  },
  {
    "coords": {
      "lat": "58.38333",
      "lon": "42.35"
    },
    "city": "Галич"
  },
  {
    "coords": {
      "lat": "59.56841",
      "lon": "30.122892"
    },
    "city": "Гатчина"
  },
  {
    "coords": {
      "lat": "54.65",
      "lon": "21.06667"
    },
    "city": "Гвардейск"
  },
  {
    "coords": {
      "lat": "58.73333",
      "lon": "27.81667"
    },
    "city": "Гдов"
  },
  {
    "coords": {
      "lat": "44.560999",
      "lon": "38.076949"
    },
    "city": "Геленджик"
  },
  {
    "coords": {
      "lat": "44.15",
      "lon": "43.46667"
    },
    "city": "Георгиевск"
  },
  {
    "coords": {
      "lat": "58.14083",
      "lon": "52.67417"
    },
    "city": "Глазов"
  },
  {
    "coords": {
      "lat": "55.61472",
      "lon": "36.98722"
    },
    "city": "Голицыно"
  },
  {
    "coords": {
      "lat": "56.13333",
      "lon": "43.06667"
    },
    "city": "Горбатов"
  },
  {
    "coords": {
      "lat": "51.96",
      "lon": "85.96"
    },
    "city": "Горно-Алтайск"
  },
  {
    "coords": {
      "lat": "58.38333",
      "lon": "58.31667"
    },
    "city": "Горнозаводск"
  },
  {
    "coords": {
      "lat": "50.993028",
      "lon": "81.467934"
    },
    "city": "Горняк"
  },
  {
    "coords": {
      "lat": "56.65028",
      "lon": "43.47028"
    },
    "city": "Городец"
  },
  {
    "coords": {
      "lat": "53.26667",
      "lon": "45.7"
    },
    "city": "Городище"
  },
  {
    "coords": {
      "lat": "46.08333",
      "lon": "41.93333"
    },
    "city": "Городовиковск"
  },
  {
    "coords": {
      "lat": "56.20278",
      "lon": "42.6925"
    },
    "city": "Гороховец"
  },
  {
    "coords": {
      "lat": "44.633284",
      "lon": "39.133287"
    },
    "city": "Горячий Ключ"
  },
  {
    "coords": {
      "lat": "50.48333",
      "lon": "35.66667"
    },
    "city": "Грайворон"
  },
  {
    "coords": {
      "lat": "58.56667",
      "lon": "57.83333"
    },
    "city": "Гремячинск"
  },
  {
    "coords": {
      "lat": "43.31667",
      "lon": "45.7"
    },
    "city": "Грозный"
  },
  {
    "coords": {
      "lat": "52.5",
      "lon": "39.93333"
    },
    "city": "Грязи"
  },
  {
    "coords": {
      "lat": "58.88333",
      "lon": "40.25"
    },
    "city": "Грязовец"
  },
  {
    "coords": {
      "lat": "58.86667",
      "lon": "57.58333"
    },
    "city": "Губаха"
  },
  {
    "coords": {
      "lat": "51.28333",
      "lon": "37.55"
    },
    "city": "Губкин"
  },
  {
    "coords": {
      "lat": "64.43333",
      "lon": "76.5"
    },
    "city": "Губкинский"
  },
  {
    "coords": {
      "lat": "43.34861",
      "lon": "46.09611"
    },
    "city": "Гудермес"
  },
  {
    "coords": {
      "lat": "48.05",
      "lon": "39.93333"
    },
    "city": "Гуково"
  },
  {
    "coords": {
      "lat": "45.36028",
      "lon": "40.69444"
    },
    "city": "Гулькевичи"
  },
  {
    "coords": {
      "lat": "54.76667",
      "lon": "20.6"
    },
    "city": "Гурьевск"
  },
  {
    "coords": {
      "lat": "54.28333",
      "lon": "85.93333"
    },
    "city": "Гурьевск"
  },
  {
    "coords": {
      "lat": "54.58333",
      "lon": "22.2"
    },
    "city": "Гусев"
  },
  {
    "coords": {
      "lat": "51.28556",
      "lon": "106.52917"
    },
    "city": "Гусиноозёрск"
  },
  {
    "coords": {
      "lat": "55.61667",
      "lon": "40.65"
    },
    "city": "Гусь-Хрустальный"
  },
  {
    "coords": {
      "lat": "54.21667",
      "lon": "55.03333"
    },
    "city": "Давлеканово"
  },
  {
    "coords": {
      "lat": "42.11667",
      "lon": "48.2"
    },
    "city": "Дагестанские Огни"
  },
  {
    "coords": {
      "lat": "56.26667",
      "lon": "62.91667"
    },
    "city": "Далматово"
  },
  {
    "coords": {
      "lat": "44.56667",
      "lon": "135.61667"
    },
    "city": "Дальнегорск"
  },
  {
    "coords": {
      "lat": "45.93333",
      "lon": "133.73333"
    },
    "city": "Дальнереченск"
  },
  {
    "coords": {
      "lat": "58.18333",
      "lon": "40.18333"
    },
    "city": "Данилов"
  },
  {
    "coords": {
      "lat": "53.25",
      "lon": "39.15"
    },
    "city": "Данков"
  },
  {
    "coords": {
      "lat": "56.7",
      "lon": "60.1"
    },
    "city": "Дегтярск"
  },
  {
    "coords": {
      "lat": "55.86667",
      "lon": "37.13333"
    },
    "city": "Дедовск"
  },
  {
    "coords": {
      "lat": "55.26667",
      "lon": "31.51667"
    },
    "city": "Демидов"
  },
  {
    "coords": {
      "lat": "42.069825",
      "lon": "48.295025"
    },
    "city": "Дербент"
  },
  {
    "coords": {
      "lat": "54.1530861",
      "lon": "33.2902917"
    },
    "city": "Десногорск"
  },
  {
    "coords": {
      "lat": "45.70861",
      "lon": "34.39333"
    },
    "city": "Джанкой"
  },
  {
    "coords": {
      "lat": "56.23333",
      "lon": "43.45"
    },
    "city": "Дзержинск"
  },
  {
    "coords": {
      "lat": "55.63333",
      "lon": "37.85"
    },
    "city": "Дзержинский"
  },
  {
    "coords": {
      "lat": "55.95",
      "lon": "92.38333"
    },
    "city": "Дивногорск"
  },
  {
    "coords": {
      "lat": "43.15",
      "lon": "44.15"
    },
    "city": "Дигора"
  },
  {
    "coords": {
      "lat": "54.23333",
      "lon": "49.58333"
    },
    "city": "Димитровград"
  },
  {
    "coords": {
      "lat": "52.12889",
      "lon": "35.07556"
    },
    "city": "Дмитриев"
  },
  {
    "coords": {
      "lat": "56.34667",
      "lon": "37.52167"
    },
    "city": "Дмитров"
  },
  {
    "coords": {
      "lat": "52.505504",
      "lon": "35.141478"
    },
    "city": "Дмитровск"
  },
  {
    "coords": {
      "lat": "57.83333",
      "lon": "29.96667"
    },
    "city": "Дно"
  },
  {
    "coords": {
      "lat": "58.45",
      "lon": "56.41667"
    },
    "city": "Добрянка"
  },
  {
    "coords": {
      "lat": "55.93333",
      "lon": "37.5"
    },
    "city": "Долгопрудный"
  },
  {
    "coords": {
      "lat": "47.31667",
      "lon": "142.8"
    },
    "city": "Долинск"
  },
  {
    "coords": {
      "lat": "55.44389",
      "lon": "37.75806"
    },
    "city": "Домодедово"
  },
  {
    "coords": {
      "lat": "48.33694",
      "lon": "39.945"
    },
    "city": "Донецк"
  },
  {
    "coords": {
      "lat": "53.96667",
      "lon": "38.31667"
    },
    "city": "Донской"
  },
  {
    "coords": {
      "lat": "54.92",
      "lon": "33.307777777778"
    },
    "city": "Дорогобуж"
  },
  {
    "coords": {
      "lat": "55.74444",
      "lon": "38.84944"
    },
    "city": "Дрезна"
  },
  {
    "coords": {
      "lat": "56.75",
      "lon": "37.15"
    },
    "city": "Дубна"
  },
  {
    "coords": {
      "lat": "49.05",
      "lon": "44.83333"
    },
    "city": "Дубовка"
  },
  {
    "coords": {
      "lat": "69.4",
      "lon": "86.18333"
    },
    "city": "Дудинка"
  },
  {
    "coords": {
      "lat": "55.2",
      "lon": "32.41667"
    },
    "city": "Духовщина"
  },
  {
    "coords": {
      "lat": "55.48333",
      "lon": "54.86667"
    },
    "city": "Дюртюли"
  },
  {
    "coords": {
      "lat": "53.6",
      "lon": "34.33333"
    },
    "city": "Дятьково"
  },
  {
    "coords": {
      "lat": "45.2",
      "lon": "33.35833"
    },
    "city": "Евпатория"
  },
  {
    "coords": {
      "lat": "55.38333",
      "lon": "39.03361"
    },
    "city": "Егорьевск"
  },
  {
    "coords": {
      "lat": "46.71056",
      "lon": "38.27778"
    },
    "city": "Ейск"
  },
  {
    "coords": {
      "lat": "56.83333",
      "lon": "60.58333"
    },
    "city": "Екатеринбург"
  },
  {
    "coords": {
      "lat": "55.76667",
      "lon": "52.03333"
    },
    "city": "Елабуга"
  },
  {
    "coords": {
      "lat": "52.61667",
      "lon": "38.46667"
    },
    "city": "Елец"
  },
  {
    "coords": {
      "lat": "53.18333",
      "lon": "158.38333"
    },
    "city": "Елизово"
  },
  {
    "coords": {
      "lat": "54.56667",
      "lon": "33.16667"
    },
    "city": "Ельня"
  },
  {
    "coords": {
      "lat": "54.75",
      "lon": "61.31667"
    },
    "city": "Еманжелинск"
  },
  {
    "coords": {
      "lat": "62.58333",
      "lon": "50.85"
    },
    "city": "Емва"
  },
  {
    "coords": {
      "lat": "58.46667",
      "lon": "92.13333"
    },
    "city": "Енисейск"
  },
  {
    "coords": {
      "lat": "55.20556",
      "lon": "36.57"
    },
    "city": "Ермолино"
  },
  {
    "coords": {
      "lat": "51.35",
      "lon": "48.28333"
    },
    "city": "Ершов"
  },
  {
    "coords": {
      "lat": "44.04306",
      "lon": "42.86417"
    },
    "city": "Ессентуки"
  },
  {
    "coords": {
      "lat": "53.149167",
      "lon": "38.082585"
    },
    "city": "Ефремов"
  },
  {
    "coords": {
      "lat": "44.13333",
      "lon": "43.03333"
    },
    "city": "Железноводск"
  },
  {
    "coords": {
      "lat": "56.58333",
      "lon": "104.11667"
    },
    "city": "Железногорск-Илимский"
  },
  {
    "coords": {
      "lat": "56.25",
      "lon": "93.53333"
    },
    "city": "Железногорск"
  },
  {
    "coords": {
      "lat": "52.339174",
      "lon": "35.351582"
    },
    "city": "Железногорск"
  },
  {
    "coords": {
      "lat": "51.83333",
      "lon": "41.46667"
    },
    "city": "Жердевка"
  },
  {
    "coords": {
      "lat": "53.4",
      "lon": "49.5"
    },
    "city": "Жигулёвск"
  },
  {
    "coords": {
      "lat": "53.75028",
      "lon": "34.73611"
    },
    "city": "Жиздра"
  },
  {
    "coords": {
      "lat": "50.98028",
      "lon": "44.78083"
    },
    "city": "Жирновск"
  },
  {
    "coords": {
      "lat": "55.03333",
      "lon": "36.75"
    },
    "city": "Жуков"
  },
  {
    "coords": {
      "lat": "53.53333",
      "lon": "33.73333"
    },
    "city": "Жуковка"
  },
  {
    "coords": {
      "lat": "55.60111",
      "lon": "38.11611"
    },
    "city": "Жуковский"
  },
  {
    "coords": {
      "lat": "50.11667",
      "lon": "129.43333"
    },
    "city": "Завитинск"
  },
  {
    "coords": {
      "lat": "56.5",
      "lon": "66.55"
    },
    "city": "Заводоуковск"
  },
  {
    "coords": {
      "lat": "57.48333",
      "lon": "42.13333"
    },
    "city": "Заволжск"
  },
  {
    "coords": {
      "lat": "56.6425",
      "lon": "43.39278"
    },
    "city": "Заволжье"
  },
  {
    "coords": {
      "lat": "52.38333",
      "lon": "38.91667"
    },
    "city": "Задонск"
  },
  {
    "coords": {
      "lat": "55.3",
      "lon": "52.01667"
    },
    "city": "Заинск"
  },
  {
    "coords": {
      "lat": "50.38333",
      "lon": "103.28333"
    },
    "city": "Закаменск"
  },
  {
    "coords": {
      "lat": "55.96667",
      "lon": "94.7"
    },
    "city": "Заозёрный"
  },
  {
    "coords": {
      "lat": "69.4",
      "lon": "32.45"
    },
    "city": "Заозёрск"
  },
  {
    "coords": {
      "lat": "56.26667",
      "lon": "32.08333"
    },
    "city": "Западная Двина"
  },
  {
    "coords": {
      "lat": "69.41667",
      "lon": "30.8"
    },
    "city": "Заполярный"
  },
  {
    "coords": {
      "lat": "54.76528",
      "lon": "38.88361"
    },
    "city": "Зарайск"
  },
  {
    "coords": {
      "lat": "53.2",
      "lon": "45.16667"
    },
    "city": "Заречный"
  },
  {
    "coords": {
      "lat": "56.81667",
      "lon": "61.31667"
    },
    "city": "Заречный"
  },
  {
    "coords": {
      "lat": "53.7",
      "lon": "84.91667"
    },
    "city": "Заринск"
  },
  {
    "coords": {
      "lat": "55.96667",
      "lon": "48.01667"
    },
    "city": "Звенигово"
  },
  {
    "coords": {
      "lat": "55.73333",
      "lon": "36.85"
    },
    "city": "Звенигород"
  },
  {
    "coords": {
      "lat": "48.01667",
      "lon": "40.11667"
    },
    "city": "Зверево"
  },
  {
    "coords": {
      "lat": "56.1",
      "lon": "94.58333"
    },
    "city": "Зеленогорск"
  },
  {
    "coords": {
      "lat": "60.2",
      "lon": "29.7"
    },
    "city": "Зеленогорск"
  },
  {
    "coords": {
      "lat": "55.997917",
      "lon": "37.190417"
    },
    "city": "Зеленоград"
  },
  {
    "coords": {
      "lat": "54.95",
      "lon": "20.48333"
    },
    "city": "Зеленоградск"
  },
  {
    "coords": {
      "lat": "55.85",
      "lon": "48.51667"
    },
    "city": "Зеленодольск"
  },
  {
    "coords": {
      "lat": "44.4070115",
      "lon": "43.8731235"
    },
    "city": "Зеленокумск"
  },
  {
    "coords": {
      "lat": "46.846525",
      "lon": "40.3040333"
    },
    "city": "Зерноград"
  },
  {
    "coords": {
      "lat": "53.73333",
      "lon": "127.25"
    },
    "city": "Зея"
  },
  {
    "coords": {
      "lat": "53.91667",
      "lon": "102.05"
    },
    "city": "Зима"
  },
  {
    "coords": {
      "lat": "55.16667",
      "lon": "59.66667"
    },
    "city": "Златоуст"
  },
  {
    "coords": {
      "lat": "52.43333",
      "lon": "31.73333"
    },
    "city": "Злынка"
  },
  {
    "coords": {
      "lat": "51.16667",
      "lon": "82.16667"
    },
    "city": "Змеиногорск"
  },
  {
    "coords": {
      "lat": "48.58333",
      "lon": "45.75"
    },
    "city": "Знаменск"
  },
  {
    "coords": {
      "lat": "56.16667",
      "lon": "34.58333"
    },
    "city": "Зубцов"
  },
  {
    "coords": {
      "lat": "58.403333",
      "lon": "51.130361"
    },
    "city": "Зуевка"
  },
  {
    "coords": {
      "lat": "59.37649",
      "lon": "28.219712"
    },
    "city": "Ивангород"
  },
  {
    "coords": {
      "lat": "56.99667",
      "lon": "40.98194"
    },
    "city": "Иваново"
  },
  {
    "coords": {
      "lat": "55.97",
      "lon": "37.92"
    },
    "city": "Ивантеевка"
  },
  {
    "coords": {
      "lat": "60.68333",
      "lon": "60.43333"
    },
    "city": "Ивдель"
  },
  {
    "coords": {
      "lat": "67.46667",
      "lon": "86.56667"
    },
    "city": "Игарка"
  },
  {
    "coords": {
      "lat": "56.85306",
      "lon": "53.21222"
    },
    "city": "Ижевск"
  },
  {
    "coords": {
      "lat": "42.56667",
      "lon": "47.86667"
    },
    "city": "Избербаш"
  },
  {
    "coords": {
      "lat": "45.36667",
      "lon": "41.71667"
    },
    "city": "Изобильный"
  },
  {
    "coords": {
      "lat": "56.23333",
      "lon": "96.06667"
    },
    "city": "Иланский"
  },
  {
    "coords": {
      "lat": "53.85",
      "lon": "46.35"
    },
    "city": "Инза"
  },
  {
    "coords": {
      "lat": "44.61417",
      "lon": "33.60833"
    },
    "city": "Инкерман"
  },
  {
    "coords": {
      "lat": "55.763633",
      "lon": "48.736553"
    },
    "city": "Иннополис"
  },
  {
    "coords": {
      "lat": "53.86667",
      "lon": "44.36667"
    },
    "city": "Инсар"
  },
  {
    "coords": {
      "lat": "66.0398139",
      "lon": "60.1315194"
    },
    "city": "Инта"
  },
  {
    "coords": {
      "lat": "45.71667",
      "lon": "42.9"
    },
    "city": "Ипатово"
  },
  {
    "coords": {
      "lat": "57.66667",
      "lon": "63.06667"
    },
    "city": "Ирбит"
  },
  {
    "coords": {
      "lat": "52.28333",
      "lon": "104.3"
    },
    "city": "Иркутск"
  },
  {
    "coords": {
      "lat": "54.90889",
      "lon": "71.26056"
    },
    "city": "Исилькуль"
  },
  {
    "coords": {
      "lat": "54.63333",
      "lon": "83.3"
    },
    "city": "Искитим"
  },
  {
    "coords": {
      "lat": "55.91667",
      "lon": "36.86667"
    },
    "city": "Истра"
  },
  {
    "coords": {
      "lat": "56.11667",
      "lon": "69.5"
    },
    "city": "Ишим"
  },
  {
    "coords": {
      "lat": "53.45444",
      "lon": "56.04389"
    },
    "city": "Ишимбай"
  },
  {
    "coords": {
      "lat": "56.632777777778",
      "lon": "47.895833333333"
    },
    "city": "Йошкар-Ола"
  },
  {
    "coords": {
      "lat": "59.5",
      "lon": "40.33333"
    },
    "city": "Кадников"
  },
  {
    "coords": {
      "lat": "55.79083",
      "lon": "49.11444"
    },
    "city": "Казань"
  },
  {
    "coords": {
      "lat": "48.68333",
      "lon": "43.53333"
    },
    "city": "Калач-на-Дону"
  },
  {
    "coords": {
      "lat": "50.42583",
      "lon": "41.01556"
    },
    "city": "Калач"
  },
  {
    "coords": {
      "lat": "55.05",
      "lon": "74.58333"
    },
    "city": "Калачинск"
  },
  {
    "coords": {
      "lat": "54.71667",
      "lon": "20.5"
    },
    "city": "Калининград"
  },
  {
    "coords": {
      "lat": "51.5",
      "lon": "44.45"
    },
    "city": "Калининск"
  },
  {
    "coords": {
      "lat": "53.51667",
      "lon": "87.26667"
    },
    "city": "Калтан"
  },
  {
    "coords": {
      "lat": "54.53333",
      "lon": "36.26667"
    },
    "city": "Калуга"
  },
  {
    "coords": {
      "lat": "57.23333",
      "lon": "37.85"
    },
    "city": "Калязин"
  },
  {
    "coords": {
      "lat": "56.26667",
      "lon": "54.2"
    },
    "city": "Камбарка"
  },
  {
    "coords": {
      "lat": "53.18333",
      "lon": "44.05"
    },
    "city": "Каменка"
  },
  {
    "coords": {
      "lat": "60.95081",
      "lon": "29.130882"
    },
    "city": "Каменногорск"
  },
  {
    "coords": {
      "lat": "56.4",
      "lon": "61.93333"
    },
    "city": "Каменск-Уральский"
  },
  {
    "coords": {
      "lat": "48.31667",
      "lon": "40.26667"
    },
    "city": "Каменск-Шахтинский"
  },
  {
    "coords": {
      "lat": "53.79194",
      "lon": "81.34861"
    },
    "city": "Камень-на-Оби"
  },
  {
    "coords": {
      "lat": "56.34917",
      "lon": "40.99778"
    },
    "city": "Камешково"
  },
  {
    "coords": {
      "lat": "46.11556",
      "lon": "48.07694"
    },
    "city": "Камызяк"
  },
  {
    "coords": {
      "lat": "50.08333",
      "lon": "45.4"
    },
    "city": "Камышин"
  },
  {
    "coords": {
      "lat": "56.85",
      "lon": "62.71667"
    },
    "city": "Камышлов"
  },
  {
    "coords": {
      "lat": "55.50694",
      "lon": "47.49139"
    },
    "city": "Канаш"
  },
  {
    "coords": {
      "lat": "67.15694",
      "lon": "32.41167"
    },
    "city": "Кандалакша"
  },
  {
    "coords": {
      "lat": "56.2",
      "lon": "95.7"
    },
    "city": "Канск"
  },
  {
    "coords": {
      "lat": "56.30889",
      "lon": "38.70139"
    },
    "city": "Карабаново"
  },
  {
    "coords": {
      "lat": "55.48333",
      "lon": "60.2"
    },
    "city": "Карабаш"
  },
  {
    "coords": {
      "lat": "43.306285",
      "lon": "44.909763"
    },
    "city": "Карабулак"
  },
  {
    "coords": {
      "lat": "53.73333",
      "lon": "78.03333"
    },
    "city": "Карасук"
  },
  {
    "coords": {
      "lat": "43.769713",
      "lon": "41.911369"
    },
    "city": "Карачаевск"
  },
  {
    "coords": {
      "lat": "53.11667",
      "lon": "34.98333"
    },
    "city": "Карачев"
  },
  {
    "coords": {
      "lat": "55.2",
      "lon": "80.28333"
    },
    "city": "Каргат"
  },
  {
    "coords": {
      "lat": "61.5",
      "lon": "38.93333"
    },
    "city": "Каргополь"
  },
  {
    "coords": {
      "lat": "59.76667",
      "lon": "60"
    },
    "city": "Карпинск"
  },
  {
    "coords": {
      "lat": "53.05",
      "lon": "60.65"
    },
    "city": "Карталы"
  },
  {
    "coords": {
      "lat": "54.95",
      "lon": "41.39722"
    },
    "city": "Касимов"
  },
  {
    "coords": {
      "lat": "55.88333",
      "lon": "60.75"
    },
    "city": "Касли"
  },
  {
    "coords": {
      "lat": "42.88333",
      "lon": "47.63333"
    },
    "city": "Каспийск"
  },
  {
    "coords": {
      "lat": "54.75",
      "lon": "58.2"
    },
    "city": "Катав-Ивановск"
  },
  {
    "coords": {
      "lat": "56.3",
      "lon": "62.56667"
    },
    "city": "Катайск"
  },
  {
    "coords": {
      "lat": "58.7",
      "lon": "59.48333"
    },
    "city": "Качканар"
  },
  {
    "coords": {
      "lat": "57.35",
      "lon": "37.61667"
    },
    "city": "Кашин"
  },
  {
    "coords": {
      "lat": "54.83333",
      "lon": "38.15"
    },
    "city": "Кашира"
  },
  {
    "coords": {
      "lat": "57.56667",
      "lon": "79.56667"
    },
    "city": "Кедровый"
  },
  {
    "coords": {
      "lat": "55.35417",
      "lon": "86.08972"
    },
    "city": "Кемерово"
  },
  {
    "coords": {
      "lat": "64.95",
      "lon": "34.6"
    },
    "city": "Кемь"
  },
  {
    "coords": {
      "lat": "45.33861",
      "lon": "36.46806"
    },
    "city": "Керчь"
  },
  {
    "coords": {
      "lat": "59.05",
      "lon": "57.65"
    },
    "city": "Кизел"
  },
  {
    "coords": {
      "lat": "43.2",
      "lon": "46.86667"
    },
    "city": "Кизилюрт"
  },
  {
    "coords": {
      "lat": "43.850245",
      "lon": "46.71698"
    },
    "city": "Кизляр"
  },
  {
    "coords": {
      "lat": "53.96667",
      "lon": "38.53333"
    },
    "city": "Кимовск"
  },
  {
    "coords": {
      "lat": "56.86667",
      "lon": "37.35"
    },
    "city": "Кимры"
  },
  {
    "coords": {
      "lat": "59.378053",
      "lon": "28.601209"
    },
    "city": "Кингисепп"
  },
  {
    "coords": {
      "lat": "53.23333",
      "lon": "50.61667"
    },
    "city": "Кинель"
  },
  {
    "coords": {
      "lat": "57.45",
      "lon": "42.15"
    },
    "city": "Кинешма"
  },
  {
    "coords": {
      "lat": "53.93333",
      "lon": "37.93333"
    },
    "city": "Киреевск"
  },
  {
    "coords": {
      "lat": "57.78333",
      "lon": "108.1"
    },
    "city": "Киренск"
  },
  {
    "coords": {
      "lat": "56.15",
      "lon": "38.86667"
    },
    "city": "Киржач"
  },
  {
    "coords": {
      "lat": "59.86667",
      "lon": "38.38333"
    },
    "city": "Кириллов"
  },
  {
    "coords": {
      "lat": "59.449695",
      "lon": "32.008716"
    },
    "city": "Кириши"
  },
  {
    "coords": {
      "lat": "54.08333",
      "lon": "34.3"
    },
    "city": "Киров"
  },
  {
    "coords": {
      "lat": "58.6",
      "lon": "49.65"
    },
    "city": "Киров"
  },
  {
    "coords": {
      "lat": "57.43333",
      "lon": "60.06667"
    },
    "city": "Кировград"
  },
  {
    "coords": {
      "lat": "58.55",
      "lon": "50.01667"
    },
    "city": "Кирово-Чепецк"
  },
  {
    "coords": {
      "lat": "59.87533",
      "lon": "30.981457"
    },
    "city": "Кировск"
  },
  {
    "coords": {
      "lat": "67.61417",
      "lon": "33.67167"
    },
    "city": "Кировск"
  },
  {
    "coords": {
      "lat": "59.337167",
      "lon": "52.245472"
    },
    "city": "Кирс"
  },
  {
    "coords": {
      "lat": "52.65",
      "lon": "42.73333"
    },
    "city": "Кирсанов"
  },
  {
    "coords": {
      "lat": "53.98333",
      "lon": "86.7"
    },
    "city": "Киселёвск"
  },
  {
    "coords": {
      "lat": "43.90333",
      "lon": "42.72444"
    },
    "city": "Кисловодск"
  },
  {
    "coords": {
      "lat": "56.33389",
      "lon": "36.7125"
    },
    "city": "Клин"
  },
  {
    "coords": {
      "lat": "52.75278",
      "lon": "32.23611"
    },
    "city": "Клинцы"
  },
  {
    "coords": {
      "lat": "55.81667",
      "lon": "45.03333"
    },
    "city": "Княгинино"
  },
  {
    "coords": {
      "lat": "67.55944",
      "lon": "30.46667"
    },
    "city": "Ковдор"
  },
  {
    "coords": {
      "lat": "56.36056",
      "lon": "41.31972"
    },
    "city": "Ковров"
  },
  {
    "coords": {
      "lat": "54.03333",
      "lon": "43.91667"
    },
    "city": "Ковылкино"
  },
  {
    "coords": {
      "lat": "62.26667",
      "lon": "74.48333"
    },
    "city": "Когалым"
  },
  {
    "coords": {
      "lat": "58.6",
      "lon": "99.18333"
    },
    "city": "Кодинск"
  },
  {
    "coords": {
      "lat": "54.03333",
      "lon": "35.78333"
    },
    "city": "Козельск"
  },
  {
    "coords": {
      "lat": "55.83333",
      "lon": "48.25"
    },
    "city": "Козловка"
  },
  {
    "coords": {
      "lat": "56.33333",
      "lon": "46.56667"
    },
    "city": "Козьмодемьянск"
  },
  {
    "coords": {
      "lat": "68.88306",
      "lon": "33.02194"
    },
    "city": "Кола"
  },
  {
    "coords": {
      "lat": "58.8252278",
      "lon": "44.311444"
    },
    "city": "Кологрив"
  },
  {
    "coords": {
      "lat": "55.09389",
      "lon": "38.76806"
    },
    "city": "Коломна"
  },
  {
    "coords": {
      "lat": "58.31667",
      "lon": "82.91667"
    },
    "city": "Колпашево"
  },
  {
    "coords": {
      "lat": "59.75",
      "lon": "30.6"
    },
    "city": "Колпино"
  },
  {
    "coords": {
      "lat": "59.932919",
      "lon": "30.655377"
    },
    "city": "Колтуши"
  },
  {
    "coords": {
      "lat": "56.3",
      "lon": "39.38333"
    },
    "city": "Кольчугино"
  },
  {
    "coords": {
      "lat": "59.621609",
      "lon": "30.393483"
    },
    "city": "Коммунар"
  },
  {
    "coords": {
      "lat": "50.55",
      "lon": "137"
    },
    "city": "Комсомольск-на-Амуре"
  },
  {
    "coords": {
      "lat": "57.03333",
      "lon": "40.38333"
    },
    "city": "Комсомольск"
  },
  {
    "coords": {
      "lat": "56.7",
      "lon": "36.76667"
    },
    "city": "Конаково"
  },
  {
    "coords": {
      "lat": "62.2",
      "lon": "34.26667"
    },
    "city": "Кондопога"
  },
  {
    "coords": {
      "lat": "54.8",
      "lon": "35.93333"
    },
    "city": "Кондрово"
  },
  {
    "coords": {
      "lat": "47.58333",
      "lon": "41.1"
    },
    "city": "Константиновск"
  },
  {
    "coords": {
      "lat": "55.1",
      "lon": "61.61667"
    },
    "city": "Копейск"
  },
  {
    "coords": {
      "lat": "53.91667",
      "lon": "40.01667"
    },
    "city": "Кораблино"
  },
  {
    "coords": {
      "lat": "45.46667",
      "lon": "39.45"
    },
    "city": "Кореновск"
  },
  {
    "coords": {
      "lat": "54.88333",
      "lon": "61.4"
    },
    "city": "Коркино"
  },
  {
    "coords": {
      "lat": "55.91667",
      "lon": "37.81667"
    },
    "city": "Королёв"
  },
  {
    "coords": {
      "lat": "50.81361",
      "lon": "37.18139"
    },
    "city": "Короча"
  },
  {
    "coords": {
      "lat": "46.63333",
      "lon": "142.76667"
    },
    "city": "Корсаков"
  },
  {
    "coords": {
      "lat": "61.3",
      "lon": "47.16667"
    },
    "city": "Коряжма"
  },
  {
    "coords": {
      "lat": "55.93333",
      "lon": "39.63333"
    },
    "city": "Костерёво"
  },
  {
    "coords": {
      "lat": "64.58333",
      "lon": "30.6"
    },
    "city": "Костомукша"
  },
  {
    "coords": {
      "lat": "57.76667",
      "lon": "40.93333"
    },
    "city": "Кострома"
  },
  {
    "coords": {
      "lat": "55.6625",
      "lon": "37.86722"
    },
    "city": "Котельники"
  },
  {
    "coords": {
      "lat": "47.63333",
      "lon": "43.13333"
    },
    "city": "Котельниково"
  },
  {
    "coords": {
      "lat": "58.3",
      "lon": "48.33333"
    },
    "city": "Котельнич"
  },
  {
    "coords": {
      "lat": "61.25",
      "lon": "46.65"
    },
    "city": "Котлас"
  },
  {
    "coords": {
      "lat": "50.31667",
      "lon": "44.8"
    },
    "city": "Котово"
  },
  {
    "coords": {
      "lat": "52.58333",
      "lon": "41.5"
    },
    "city": "Котовск"
  },
  {
    "coords": {
      "lat": "56.93333",
      "lon": "41.08333"
    },
    "city": "Кохма"
  },
  {
    "coords": {
      "lat": "60.96667",
      "lon": "46.48333"
    },
    "city": "Красавино"
  },
  {
    "coords": {
      "lat": "56.12278",
      "lon": "38.14611"
    },
    "city": "Красноармейск"
  },
  {
    "coords": {
      "lat": "51.01667",
      "lon": "45.7"
    },
    "city": "Красноармейск"
  },
  {
    "coords": {
      "lat": "60.4",
      "lon": "57.06667"
    },
    "city": "Красновишерск"
  },
  {
    "coords": {
      "lat": "55.81667",
      "lon": "37.33333"
    },
    "city": "Красногорск"
  },
  {
    "coords": {
      "lat": "45.03333",
      "lon": "38.98333"
    },
    "city": "Краснодар"
  },
  {
    "coords": {
      "lat": "59.733745",
      "lon": "30.086205"
    },
    "city": "Красное Село"
  },
  {
    "coords": {
      "lat": "56.43806",
      "lon": "38.22944"
    },
    "city": "Краснозаводск"
  },
  {
    "coords": {
      "lat": "54.95",
      "lon": "22.5"
    },
    "city": "Краснознаменск"
  },
  {
    "coords": {
      "lat": "55.6",
      "lon": "37.03333"
    },
    "city": "Краснознаменск"
  },
  {
    "coords": {
      "lat": "50.1",
      "lon": "118.03333"
    },
    "city": "Краснокаменск"
  },
  {
    "coords": {
      "lat": "58.08333",
      "lon": "55.75"
    },
    "city": "Краснокамск"
  },
  {
    "coords": {
      "lat": "45.955306",
      "lon": "33.795"
    },
    "city": "Красноперекопск"
  },
  {
    "coords": {
      "lat": "48.7",
      "lon": "44.566666666667"
    },
    "city": "Краснослободск"
  },
  {
    "coords": {
      "lat": "54.43333",
      "lon": "43.78333"
    },
    "city": "Краснослободск"
  },
  {
    "coords": {
      "lat": "59.76667",
      "lon": "60.2"
    },
    "city": "Краснотурьинск"
  },
  {
    "coords": {
      "lat": "58.35",
      "lon": "60.05"
    },
    "city": "Красноуральск"
  },
  {
    "coords": {
      "lat": "56.61667",
      "lon": "57.76667"
    },
    "city": "Красноуфимск"
  },
  {
    "coords": {
      "lat": "56.012083",
      "lon": "92.871295"
    },
    "city": "Красноярск"
  },
  {
    "coords": {
      "lat": "50.95",
      "lon": "46.96667"
    },
    "city": "Красный Кут"
  },
  {
    "coords": {
      "lat": "47.88333",
      "lon": "40.06667"
    },
    "city": "Красный Сулин"
  },
  {
    "coords": {
      "lat": "58.06329",
      "lon": "37.122983"
    },
    "city": "Красный Холм"
  },
  {
    "coords": {
      "lat": "54.88917",
      "lon": "37.12333"
    },
    "city": "Кремёнки"
  },
  {
    "coords": {
      "lat": "60",
      "lon": "29.76667"
    },
    "city": "Кронштадт"
  },
  {
    "coords": {
      "lat": "45.43333",
      "lon": "40.56667"
    },
    "city": "Кропоткин"
  },
  {
    "coords": {
      "lat": "44.93333",
      "lon": "38"
    },
    "city": "Крымск"
  },
  {
    "coords": {
      "lat": "56.15167",
      "lon": "44.19556"
    },
    "city": "Кстово"
  },
  {
    "coords": {
      "lat": "55.57639",
      "lon": "36.69472"
    },
    "city": "Кубинка"
  },
  {
    "coords": {
      "lat": "51.48333",
      "lon": "57.35"
    },
    "city": "Кувандык"
  },
  {
    "coords": {
      "lat": "57.03333",
      "lon": "34.16667"
    },
    "city": "Кувшиново"
  },
  {
    "coords": {
      "lat": "59.908489",
      "lon": "30.513569"
    },
    "city": "Кудрово"
  },
  {
    "coords": {
      "lat": "59.01667",
      "lon": "54.66667"
    },
    "city": "Кудымкар"
  },
  {
    "coords": {
      "lat": "53.11667",
      "lon": "46.6"
    },
    "city": "Кузнецк"
  },
  {
    "coords": {
      "lat": "55.45028",
      "lon": "78.3075"
    },
    "city": "Куйбышев"
  },
  {
    "coords": {
      "lat": "56.1825",
      "lon": "50.90639"
    },
    "city": "Кукмор"
  },
  {
    "coords": {
      "lat": "55.41667",
      "lon": "42.51667"
    },
    "city": "Кулебаки"
  },
  {
    "coords": {
      "lat": "52.76667",
      "lon": "55.78333"
    },
    "city": "Кумертау"
  },
  {
    "coords": {
      "lat": "57.43333",
      "lon": "56.93333"
    },
    "city": "Кунгур"
  },
  {
    "coords": {
      "lat": "54.36667",
      "lon": "77.3"
    },
    "city": "Купино"
  },
  {
    "coords": {
      "lat": "55.44083",
      "lon": "65.34111"
    },
    "city": "Курган"
  },
  {
    "coords": {
      "lat": "44.88333",
      "lon": "40.6"
    },
    "city": "Курганинск"
  },
  {
    "coords": {
      "lat": "45.25",
      "lon": "147.883333"
    },
    "city": "Курильск"
  },
  {
    "coords": {
      "lat": "55.45",
      "lon": "40.61667"
    },
    "city": "Курлово"
  },
  {
    "coords": {
      "lat": "55.58333",
      "lon": "38.91667"
    },
    "city": "Куровское"
  },
  {
    "coords": {
      "lat": "51.71667",
      "lon": "36.18333"
    },
    "city": "Курск"
  },
  {
    "coords": {
      "lat": "54.9",
      "lon": "64.43333"
    },
    "city": "Куртамыш"
  },
  {
    "coords": {
      "lat": "43.20444",
      "lon": "46.087812"
    },
    "city": "Курчалой"
  },
  {
    "coords": {
      "lat": "51.66667",
      "lon": "35.65"
    },
    "city": "Курчатов"
  },
  {
    "coords": {
      "lat": "55.33333",
      "lon": "59.43333"
    },
    "city": "Куса"
  },
  {
    "coords": {
      "lat": "58.28333",
      "lon": "59.73333"
    },
    "city": "Кушва"
  },
  {
    "coords": {
      "lat": "51.7",
      "lon": "94.36667"
    },
    "city": "Кызыл"
  },
  {
    "coords": {
      "lat": "55.7",
      "lon": "60.55"
    },
    "city": "Кыштым"
  },
  {
    "coords": {
      "lat": "50.35",
      "lon": "106.45"
    },
    "city": "Кяхта"
  },
  {
    "coords": {
      "lat": "44.633338",
      "lon": "40.733311"
    },
    "city": "Лабинск"
  },
  {
    "coords": {
      "lat": "66.65806",
      "lon": "66.38389"
    },
    "city": "Лабытнанги"
  },
  {
    "coords": {
      "lat": "45.3925",
      "lon": "47.355"
    },
    "city": "Лагань"
  },
  {
    "coords": {
      "lat": "54.56667",
      "lon": "20.16667"
    },
    "city": "Ладушкин"
  },
  {
    "coords": {
      "lat": "55.4",
      "lon": "49.55"
    },
    "city": "Лаишево"
  },
  {
    "coords": {
      "lat": "56.01694",
      "lon": "39.94944"
    },
    "city": "Лакинск"
  },
  {
    "coords": {
      "lat": "61.25",
      "lon": "75.16667"
    },
    "city": "Лангепас"
  },
  {
    "coords": {
      "lat": "61.51667",
      "lon": "30.2"
    },
    "city": "Лахденпохья"
  },
  {
    "coords": {
      "lat": "53.0115528",
      "lon": "39.1281167"
    },
    "city": "Лебедянь"
  },
  {
    "coords": {
      "lat": "54.5988694",
      "lon": "52.4422722"
    },
    "city": "Лениногорск"
  },
  {
    "coords": {
      "lat": "54.65",
      "lon": "86.16667"
    },
    "city": "Ленинск-Кузнецкий"
  },
  {
    "coords": {
      "lat": "48.7",
      "lon": "45.2"
    },
    "city": "Ленинск"
  },
  {
    "coords": {
      "lat": "60.71667",
      "lon": "114.9"
    },
    "city": "Ленск"
  },
  {
    "coords": {
      "lat": "44.10528",
      "lon": "42.97167"
    },
    "city": "Лермонтов"
  },
  {
    "coords": {
      "lat": "58.63333",
      "lon": "59.78333"
    },
    "city": "Лесной"
  },
  {
    "coords": {
      "lat": "45.46667",
      "lon": "133.4"
    },
    "city": "Лесозаводск"
  },
  {
    "coords": {
      "lat": "58.23333",
      "lon": "92.48333"
    },
    "city": "Лесосибирск"
  },
  {
    "coords": {
      "lat": "52.425306",
      "lon": "37.608306"
    },
    "city": "Ливны"
  },
  {
    "coords": {
      "lat": "55.71528",
      "lon": "38.95778"
    },
    "city": "Ликино-Дулёво"
  },
  {
    "coords": {
      "lat": "52.61667",
      "lon": "39.6"
    },
    "city": "Липецк"
  },
  {
    "coords": {
      "lat": "53.95",
      "lon": "37.7"
    },
    "city": "Липки"
  },
  {
    "coords": {
      "lat": "50.98222",
      "lon": "39.49944"
    },
    "city": "Лиски"
  },
  {
    "coords": {
      "lat": "57.11667",
      "lon": "35.46667"
    },
    "city": "Лихославль"
  },
  {
    "coords": {
      "lat": "56.01194",
      "lon": "37.47444"
    },
    "city": "Лобня"
  },
  {
    "coords": {
      "lat": "60.734305",
      "lon": "33.543183"
    },
    "city": "Лодейное Поле"
  },
  {
    "coords": {
      "lat": "59.91074",
      "lon": "29.776466"
    },
    "city": "Ломоносов"
  },
  {
    "coords": {
      "lat": "55.86667",
      "lon": "38.2"
    },
    "city": "Лосино-Петровский"
  },
  {
    "coords": {
      "lat": "58.733333333333",
      "lon": "29.85"
    },
    "city": "Луга"
  },
  {
    "coords": {
      "lat": "60.61667",
      "lon": "47.28333"
    },
    "city": "Луза"
  },
  {
    "coords": {
      "lat": "55.03833",
      "lon": "44.49778"
    },
    "city": "Лукоянов"
  },
  {
    "coords": {
      "lat": "54.96667",
      "lon": "39.025"
    },
    "city": "Луховицы"
  },
  {
    "coords": {
      "lat": "56.01278",
      "lon": "45.02528"
    },
    "city": "Лысково"
  },
  {
    "coords": {
      "lat": "58.1003806",
      "lon": "57.8043278"
    },
    "city": "Лысьва"
  },
  {
    "coords": {
      "lat": "55.58361",
      "lon": "37.90556"
    },
    "city": "Лыткарино"
  },
  {
    "coords": {
      "lat": "51.66667",
      "lon": "35.26667"
    },
    "city": "Льгов"
  },
  {
    "coords": {
      "lat": "59.349301",
      "lon": "31.24858"
    },
    "city": "Любань"
  },
  {
    "coords": {
      "lat": "55.68139",
      "lon": "37.89389"
    },
    "city": "Люберцы"
  },
  {
    "coords": {
      "lat": "58.35",
      "lon": "40.7"
    },
    "city": "Любим"
  },
  {
    "coords": {
      "lat": "53.86667",
      "lon": "34.46667"
    },
    "city": "Людиново"
  },
  {
    "coords": {
      "lat": "61.61667",
      "lon": "72.16667"
    },
    "city": "Лянтор"
  },
  {
    "coords": {
      "lat": "59.56667",
      "lon": "150.8"
    },
    "city": "Магадан"
  },
  {
    "coords": {
      "lat": "43.16667",
      "lon": "44.81667"
    },
    "city": "Магас"
  },
  {
    "coords": {
      "lat": "53.38333",
      "lon": "59.03333"
    },
    "city": "Магнитогорск"
  },
  {
    "coords": {
      "lat": "44.611",
      "lon": "40.111"
    },
    "city": "Майкоп"
  },
  {
    "coords": {
      "lat": "43.630508",
      "lon": "44.067733"
    },
    "city": "Майский"
  },
  {
    "coords": {
      "lat": "48.61667",
      "lon": "142.78333"
    },
    "city": "Макаров"
  },
  {
    "coords": {
      "lat": "57.88333",
      "lon": "43.8"
    },
    "city": "Макарьев"
  },
  {
    "coords": {
      "lat": "55.2",
      "lon": "67.25"
    },
    "city": "Макушино"
  },
  {
    "coords": {
      "lat": "58.85",
      "lon": "32.21667"
    },
    "city": "Малая Вишера"
  },
  {
    "coords": {
      "lat": "43.508882",
      "lon": "44.585563"
    },
    "city": "Малгобек"
  },
  {
    "coords": {
      "lat": "56.52278",
      "lon": "50.68083"
    },
    "city": "Малмыж"
  },
  {
    "coords": {
      "lat": "52.4",
      "lon": "36.5"
    },
    "city": "Малоархангельск"
  },
  {
    "coords": {
      "lat": "55",
      "lon": "36.46667"
    },
    "city": "Малоярославец"
  },
  {
    "coords": {
      "lat": "55.7",
      "lon": "51.4"
    },
    "city": "Мамадыш"
  },
  {
    "coords": {
      "lat": "54.46667",
      "lon": "19.93333"
    },
    "city": "Мамоново"
  },
  {
    "coords": {
      "lat": "58.33333",
      "lon": "44.76667"
    },
    "city": "Мантурово"
  },
  {
    "coords": {
      "lat": "56.21667",
      "lon": "87.75"
    },
    "city": "Мариинск"
  },
  {
    "coords": {
      "lat": "56.11667",
      "lon": "47.71667"
    },
    "city": "Мариинский Посад"
  },
  {
    "coords": {
      "lat": "51.7",
      "lon": "46.75"
    },
    "city": "Маркс"
  },
  {
    "coords": {
      "lat": "42.98333",
      "lon": "47.5"
    },
    "city": "Махачкала"
  },
  {
    "coords": {
      "lat": "53.06111",
      "lon": "32.84833"
    },
    "city": "Мглин"
  },
  {
    "coords": {
      "lat": "61.033055555556",
      "lon": "76.109722222222"
    },
    "city": "Мегион"
  },
  {
    "coords": {
      "lat": "62.91667",
      "lon": "34.45"
    },
    "city": "Медвежьегорск"
  },
  {
    "coords": {
      "lat": "51.422085",
      "lon": "57.595296"
    },
    "city": "Медногорск"
  },
  {
    "coords": {
      "lat": "54.96667",
      "lon": "35.86667"
    },
    "city": "Медынь"
  },
  {
    "coords": {
      "lat": "54.24167",
      "lon": "57.96778"
    },
    "city": "Межгорье"
  },
  {
    "coords": {
      "lat": "53.68333",
      "lon": "88.05"
    },
    "city": "Междуреченск"
  },
  {
    "coords": {
      "lat": "65.85",
      "lon": "44.23333"
    },
    "city": "Мезень"
  },
  {
    "coords": {
      "lat": "55.33333",
      "lon": "41.63333"
    },
    "city": "Меленки"
  },
  {
    "coords": {
      "lat": "52.95",
      "lon": "55.93333"
    },
    "city": "Мелеуз"
  },
  {
    "coords": {
      "lat": "55.9",
      "lon": "52.316666666667"
    },
    "city": "Менделеевск"
  },
  {
    "coords": {
      "lat": "55.71667",
      "lon": "53.08333"
    },
    "city": "Мензелинск"
  },
  {
    "coords": {
      "lat": "54.31667",
      "lon": "35.28333"
    },
    "city": "Мещовск"
  },
  {
    "coords": {
      "lat": "55.05",
      "lon": "60.1"
    },
    "city": "Миасс"
  },
  {
    "coords": {
      "lat": "62.35",
      "lon": "50.06667"
    },
    "city": "Микунь"
  },
  {
    "coords": {
      "lat": "48.91667",
      "lon": "40.4"
    },
    "city": "Миллерово"
  },
  {
    "coords": {
      "lat": "44.20083",
      "lon": "43.1125"
    },
    "city": "Минеральные Воды"
  },
  {
    "coords": {
      "lat": "53.7",
      "lon": "91.68333"
    },
    "city": "Минусинск"
  },
  {
    "coords": {
      "lat": "55.06667",
      "lon": "57.55"
    },
    "city": "Миньяр"
  },
  {
    "coords": {
      "lat": "62.76028",
      "lon": "40.33528"
    },
    "city": "Мирный"
  },
  {
    "coords": {
      "lat": "62.53333",
      "lon": "113.95"
    },
    "city": "Мирный"
  },
  {
    "coords": {
      "lat": "54.23333",
      "lon": "39.03333"
    },
    "city": "Михайлов"
  },
  {
    "coords": {
      "lat": "50.06667",
      "lon": "43.23333"
    },
    "city": "Михайловка"
  },
  {
    "coords": {
      "lat": "56.43333",
      "lon": "59.11667"
    },
    "city": "Михайловск"
  },
  {
    "coords": {
      "lat": "45.130012",
      "lon": "42.027487"
    },
    "city": "Михайловск"
  },
  {
    "coords": {
      "lat": "52.89222",
      "lon": "40.49278"
    },
    "city": "Мичуринск"
  },
  {
    "coords": {
      "lat": "53.73333",
      "lon": "119.76667"
    },
    "city": "Могоча"
  },
  {
    "coords": {
      "lat": "55.5",
      "lon": "36.03333"
    },
    "city": "Можайск"
  },
  {
    "coords": {
      "lat": "56.45",
      "lon": "52.21667"
    },
    "city": "Можга"
  },
  {
    "coords": {
      "lat": "43.736575",
      "lon": "44.652834"
    },
    "city": "Моздок"
  },
  {
    "coords": {
      "lat": "67.93944",
      "lon": "32.91556"
    },
    "city": "Мончегорск"
  },
  {
    "coords": {
      "lat": "48.35",
      "lon": "41.833333333333"
    },
    "city": "Морозовск"
  },
  {
    "coords": {
      "lat": "53.45",
      "lon": "41.8"
    },
    "city": "Моршанск"
  },
  {
    "coords": {
      "lat": "54.48333",
      "lon": "34.98333"
    },
    "city": "Мосальск"
  },
  {
    "coords": {
      "lat": "55.755833333333",
      "lon": "37.617777777778"
    },
    "city": "Москва"
  },
  {
    "coords": {
      "lat": "55.6",
      "lon": "37.35"
    },
    "city": "Московский"
  },
  {
    "coords": {
      "lat": "63.79444",
      "lon": "74.49722"
    },
    "city": "Муравленко"
  },
  {
    "coords": {
      "lat": "59.38333",
      "lon": "48.96667"
    },
    "city": "Мураши"
  },
  {
    "coords": {
      "lat": "60.051284",
      "lon": "30.438578"
    },
    "city": "Мурино"
  },
  {
    "coords": {
      "lat": "68.96667",
      "lon": "33.08333"
    },
    "city": "Мурманск"
  },
  {
    "coords": {
      "lat": "55.5725",
      "lon": "42.05139"
    },
    "city": "Муром"
  },
  {
    "coords": {
      "lat": "53.27833",
      "lon": "36.575"
    },
    "city": "Мценск"
  },
  {
    "coords": {
      "lat": "53.7",
      "lon": "87.81667"
    },
    "city": "Мыски"
  },
  {
    "coords": {
      "lat": "55.91667",
      "lon": "37.73333"
    },
    "city": "Мытищи"
  },
  {
    "coords": {
      "lat": "57.78333",
      "lon": "38.45"
    },
    "city": "Мышкин"
  },
  {
    "coords": {
      "lat": "55.7",
      "lon": "52.33333"
    },
    "city": "Набережные Челны"
  },
  {
    "coords": {
      "lat": "55.53333",
      "lon": "42.2"
    },
    "city": "Навашино"
  },
  {
    "coords": {
      "lat": "57.46667",
      "lon": "41.96667"
    },
    "city": "Наволоки"
  },
  {
    "coords": {
      "lat": "65.53333",
      "lon": "72.51667"
    },
    "city": "Надым"
  },
  {
    "coords": {
      "lat": "56.00639",
      "lon": "90.39139"
    },
    "city": "Назарово"
  },
  {
    "coords": {
      "lat": "43.21667",
      "lon": "44.76667"
    },
    "city": "Назрань"
  },
  {
    "coords": {
      "lat": "55.56667",
      "lon": "71.35"
    },
    "city": "Называевск"
  },
  {
    "coords": {
      "lat": "43.485259",
      "lon": "43.607072"
    },
    "city": "Нальчик"
  },
  {
    "coords": {
      "lat": "46.68333",
      "lon": "47.85"
    },
    "city": "Нариманов"
  },
  {
    "coords": {
      "lat": "55.38333",
      "lon": "36.73333"
    },
    "city": "Наро-Фоминск"
  },
  {
    "coords": {
      "lat": "43.556734",
      "lon": "43.862222"
    },
    "city": "Нарткала"
  },
  {
    "coords": {
      "lat": "67.63778",
      "lon": "53.00667"
    },
    "city": "Нарьян-Мар"
  },
  {
    "coords": {
      "lat": "42.81667",
      "lon": "132.88333"
    },
    "city": "Находка"
  },
  {
    "coords": {
      "lat": "56.01667",
      "lon": "29.93333"
    },
    "city": "Невель"
  },
  {
    "coords": {
      "lat": "46.65",
      "lon": "141.86667"
    },
    "city": "Невельск"
  },
  {
    "coords": {
      "lat": "44.63333",
      "lon": "41.93333"
    },
    "city": "Невинномысск"
  },
  {
    "coords": {
      "lat": "57.48333",
      "lon": "60.2"
    },
    "city": "Невьянск"
  },
  {
    "coords": {
      "lat": "56.21667",
      "lon": "32.78333"
    },
    "city": "Нелидово"
  },
  {
    "coords": {
      "lat": "55.03333",
      "lon": "22.03333"
    },
    "city": "Неман"
  },
  {
    "coords": {
      "lat": "57.45",
      "lon": "40.58333"
    },
    "city": "Нерехта"
  },
  {
    "coords": {
      "lat": "51.98333",
      "lon": "116.58333"
    },
    "city": "Нерчинск"
  },
  {
    "coords": {
      "lat": "56.65833",
      "lon": "124.725"
    },
    "city": "Нерюнгри"
  },
  {
    "coords": {
      "lat": "54.63333",
      "lon": "22.56667"
    },
    "city": "Нестеров"
  },
  {
    "coords": {
      "lat": "52.8",
      "lon": "51.16667"
    },
    "city": "Нефтегорск"
  },
  {
    "coords": {
      "lat": "56.08889",
      "lon": "54.24639"
    },
    "city": "Нефтекамск"
  },
  {
    "coords": {
      "lat": "44.75056",
      "lon": "44.97972"
    },
    "city": "Нефтекумск"
  },
  {
    "coords": {
      "lat": "61.1",
      "lon": "72.6"
    },
    "city": "Нефтеюганск"
  },
  {
    "coords": {
      "lat": "58.29444",
      "lon": "43.87806"
    },
    "city": "Нея"
  },
  {
    "coords": {
      "lat": "60.93389",
      "lon": "76.58111"
    },
    "city": "Нижневартовск"
  },
  {
    "coords": {
      "lat": "55.63333",
      "lon": "51.81667"
    },
    "city": "Нижнекамск"
  },
  {
    "coords": {
      "lat": "54.9",
      "lon": "99.01667"
    },
    "city": "Нижнеудинск"
  },
  {
    "coords": {
      "lat": "56.66667",
      "lon": "59.3"
    },
    "city": "Нижние Серги"
  },
  {
    "coords": {
      "lat": "53.53333",
      "lon": "43.68333"
    },
    "city": "Нижний Ломов"
  },
  {
    "coords": {
      "lat": "56.32694",
      "lon": "44.0075"
    },
    "city": "Нижний Новгород"
  },
  {
    "coords": {
      "lat": "57.91667",
      "lon": "59.96667"
    },
    "city": "Нижний Тагил"
  },
  {
    "coords": {
      "lat": "58.08333",
      "lon": "60.71667"
    },
    "city": "Нижняя Салда"
  },
  {
    "coords": {
      "lat": "58.62083",
      "lon": "59.84778"
    },
    "city": "Нижняя Тура"
  },
  {
    "coords": {
      "lat": "53.15",
      "lon": "140.73333"
    },
    "city": "Николаевск-на-Амуре"
  },
  {
    "coords": {
      "lat": "50.02722",
      "lon": "45.46306"
    },
    "city": "Николаевск"
  },
  {
    "coords": {
      "lat": "59.53333",
      "lon": "45.45"
    },
    "city": "Никольск"
  },
  {
    "coords": {
      "lat": "53.71667",
      "lon": "46.08333"
    },
    "city": "Никольск"
  },
  {
    "coords": {
      "lat": "59.704642",
      "lon": "30.788975"
    },
    "city": "Никольское"
  },
  {
    "coords": {
      "lat": "60.106401",
      "lon": "32.316183"
    },
    "city": "Новая Ладога"
  },
  {
    "coords": {
      "lat": "59.05",
      "lon": "60.6"
    },
    "city": "Новая Ляля"
  },
  {
    "coords": {
      "lat": "45.49333",
      "lon": "41.21694"
    },
    "city": "Новоалександровск"
  },
  {
    "coords": {
      "lat": "53.4",
      "lon": "83.93333"
    },
    "city": "Новоалтайск"
  },
  {
    "coords": {
      "lat": "50.51667",
      "lon": "42.66667"
    },
    "city": "Новоаннинский"
  },
  {
    "coords": {
      "lat": "51.31667",
      "lon": "39.21667"
    },
    "city": "Нововоронеж"
  },
  {
    "coords": {
      "lat": "64.41667",
      "lon": "40.81667"
    },
    "city": "Новодвинск"
  },
  {
    "coords": {
      "lat": "52.53333",
      "lon": "31.93333"
    },
    "city": "Новозыбков"
  },
  {
    "coords": {
      "lat": "45.1",
      "lon": "41.05"
    },
    "city": "Новокубанск"
  },
  {
    "coords": {
      "lat": "53.73333",
      "lon": "87.08333"
    },
    "city": "Новокузнецк"
  },
  {
    "coords": {
      "lat": "53.1",
      "lon": "49.91667"
    },
    "city": "Новокуйбышевск"
  },
  {
    "coords": {
      "lat": "54.03333",
      "lon": "39.75"
    },
    "city": "Новомичуринск"
  },
  {
    "coords": {
      "lat": "54.03333",
      "lon": "38.26667"
    },
    "city": "Новомосковск"
  },
  {
    "coords": {
      "lat": "43.96361",
      "lon": "43.63944"
    },
    "city": "Новопавловск"
  },
  {
    "coords": {
      "lat": "57.03333",
      "lon": "29.33333"
    },
    "city": "Новоржев"
  },
  {
    "coords": {
      "lat": "44.71667",
      "lon": "37.76667"
    },
    "city": "Новороссийск"
  },
  {
    "coords": {
      "lat": "55.01667",
      "lon": "82.91667"
    },
    "city": "Новосибирск"
  },
  {
    "coords": {
      "lat": "52.96667",
      "lon": "37.05"
    },
    "city": "Новосиль"
  },
  {
    "coords": {
      "lat": "56.33333",
      "lon": "30.15"
    },
    "city": "Новосокольники"
  },
  {
    "coords": {
      "lat": "51.20667",
      "lon": "58.32806"
    },
    "city": "Новотроицк"
  },
  {
    "coords": {
      "lat": "50.45",
      "lon": "48.15"
    },
    "city": "Новоузенск"
  },
  {
    "coords": {
      "lat": "54.15",
      "lon": "48.38333"
    },
    "city": "Новоульяновск"
  },
  {
    "coords": {
      "lat": "57.25",
      "lon": "60.08333"
    },
    "city": "Новоуральск"
  },
  {
    "coords": {
      "lat": "51.1",
      "lon": "41.61667"
    },
    "city": "Новохопёрск"
  },
  {
    "coords": {
      "lat": "56.12194",
      "lon": "47.4925"
    },
    "city": "Новочебоксарск"
  },
  {
    "coords": {
      "lat": "47.43583",
      "lon": "40.09861"
    },
    "city": "Новочеркасск"
  },
  {
    "coords": {
      "lat": "47.76667",
      "lon": "39.91667"
    },
    "city": "Новошахтинск"
  },
  {
    "coords": {
      "lat": "50.76667",
      "lon": "37.86667"
    },
    "city": "Новый Оскол"
  },
  {
    "coords": {
      "lat": "66.08472",
      "lon": "76.67889"
    },
    "city": "Новый Уренгой"
  },
  {
    "coords": {
      "lat": "55.85",
      "lon": "38.43333"
    },
    "city": "Ногинск"
  },
  {
    "coords": {
      "lat": "57.55722",
      "lon": "49.93417"
    },
    "city": "Нолинск"
  },
  {
    "coords": {
      "lat": "69.33333",
      "lon": "88.21667"
    },
    "city": "Норильск"
  },
  {
    "coords": {
      "lat": "63.20167",
      "lon": "75.45167"
    },
    "city": "Ноябрьск"
  },
  {
    "coords": {
      "lat": "54.43333",
      "lon": "50.8"
    },
    "city": "Нурлат"
  },
  {
    "coords": {
      "lat": "57.93333",
      "lon": "55.33333"
    },
    "city": "Нытва"
  },
  {
    "coords": {
      "lat": "63.28333",
      "lon": "118.33333"
    },
    "city": "Нюрба"
  },
  {
    "coords": {
      "lat": "62.13333",
      "lon": "65.38333"
    },
    "city": "Нягань"
  },
  {
    "coords": {
      "lat": "56.05",
      "lon": "59.6"
    },
    "city": "Нязепетровск"
  },
  {
    "coords": {
      "lat": "61.666666666667",
      "lon": "40.2"
    },
    "city": "Няндома"
  },
  {
    "coords": {
      "lat": "49",
      "lon": "131.05"
    },
    "city": "Облучье"
  },
  {
    "coords": {
      "lat": "55.1",
      "lon": "36.61667"
    },
    "city": "Обнинск"
  },
  {
    "coords": {
      "lat": "51.21111",
      "lon": "36.27639"
    },
    "city": "Обоянь"
  },
  {
    "coords": {
      "lat": "54.99167",
      "lon": "82.7125"
    },
    "city": "Обь"
  },
  {
    "coords": {
      "lat": "55.67333",
      "lon": "37.27333"
    },
    "city": "Одинцово"
  },
  {
    "coords": {
      "lat": "54.41667",
      "lon": "22.01667"
    },
    "city": "Озёрск"
  },
  {
    "coords": {
      "lat": "55.75",
      "lon": "60.71667"
    },
    "city": "Озёрск"
  },
  {
    "coords": {
      "lat": "54.857875",
      "lon": "38.5438194"
    },
    "city": "Озёры"
  },
  {
    "coords": {
      "lat": "53.16667",
      "lon": "48.66667"
    },
    "city": "Октябрьск"
  },
  {
    "coords": {
      "lat": "54.48333",
      "lon": "53.48333"
    },
    "city": "Октябрьский"
  },
  {
    "coords": {
      "lat": "58.38333",
      "lon": "33.3"
    },
    "city": "Окуловка"
  },
  {
    "coords": {
      "lat": "68.15",
      "lon": "33.28333"
    },
    "city": "Оленегорск"
  },
  {
    "coords": {
      "lat": "60.98333",
      "lon": "32.96667"
    },
    "city": "Олонец"
  },
  {
    "coords": {
      "lat": "60.38333",
      "lon": "120.43333"
    },
    "city": "Олёкминск"
  },
  {
    "coords": {
      "lat": "54.96667",
      "lon": "73.38333"
    },
    "city": "Омск"
  },
  {
    "coords": {
      "lat": "58.66667",
      "lon": "52.18333"
    },
    "city": "Омутнинск"
  },
  {
    "coords": {
      "lat": "63.91667",
      "lon": "38.08333"
    },
    "city": "Онега"
  },
  {
    "coords": {
      "lat": "56.71667",
      "lon": "28.65"
    },
    "city": "Опочка"
  },
  {
    "coords": {
      "lat": "51.76667",
      "lon": "55.1"
    },
    "city": "Оренбург"
  },
  {
    "coords": {
      "lat": "55.8",
      "lon": "38.96667"
    },
    "city": "Орехово-Зуево"
  },
  {
    "coords": {
      "lat": "58.53889",
      "lon": "48.89861"
    },
    "city": "Орлов"
  },
  {
    "coords": {
      "lat": "51.2",
      "lon": "58.61667"
    },
    "city": "Орск"
  },
  {
    "coords": {
      "lat": "52.96667",
      "lon": "36.08333"
    },
    "city": "Орёл"
  },
  {
    "coords": {
      "lat": "57.28333",
      "lon": "55.45"
    },
    "city": "Оса"
  },
  {
    "coords": {
      "lat": "53.61667",
      "lon": "87.33333"
    },
    "city": "Осинники"
  },
  {
    "coords": {
      "lat": "57.15",
      "lon": "33.1"
    },
    "city": "Осташков"
  },
  {
    "coords": {
      "lat": "57.33333",
      "lon": "28.35"
    },
    "city": "Остров"
  },
  {
    "coords": {
      "lat": "68.05306",
      "lon": "39.51306"
    },
    "city": "Островной"
  },
  {
    "coords": {
      "lat": "50.86667",
      "lon": "39.06667"
    },
    "city": "Острогожск"
  },
  {
    "coords": {
      "lat": "59.77409",
      "lon": "30.794553"
    },
    "city": "Отрадное"
  },
  {
    "coords": {
      "lat": "53.36667",
      "lon": "51.35"
    },
    "city": "Отрадный"
  },
  {
    "coords": {
      "lat": "53.58333",
      "lon": "142.95"
    },
    "city": "Оха"
  },
  {
    "coords": {
      "lat": "57.71667",
      "lon": "55.38333"
    },
    "city": "Оханск"
  },
  {
    "coords": {
      "lat": "57.88333",
      "lon": "54.71667"
    },
    "city": "Очёр"
  },
  {
    "coords": {
      "lat": "55.96194",
      "lon": "43.09"
    },
    "city": "Павлово"
  },
  {
    "coords": {
      "lat": "50.45",
      "lon": "40.06667"
    },
    "city": "Павловск"
  },
  {
    "coords": {
      "lat": "59.68333",
      "lon": "30.43333"
    },
    "city": "Павловск"
  },
  {
    "coords": {
      "lat": "55.78333",
      "lon": "38.65"
    },
    "city": "Павловский Посад"
  },
  {
    "coords": {
      "lat": "50.05",
      "lon": "46.88333"
    },
    "city": "Палласовка"
  },
  {
    "coords": {
      "lat": "43.13333",
      "lon": "133.13333"
    },
    "city": "Партизанск"
  },
  {
    "coords": {
      "lat": "69.7",
      "lon": "170.31667"
    },
    "city": "Певек"
  },
  {
    "coords": {
      "lat": "53.2",
      "lon": "45"
    },
    "city": "Пенза"
  },
  {
    "coords": {
      "lat": "54.86667",
      "lon": "43.8"
    },
    "city": "Первомайск"
  },
  {
    "coords": {
      "lat": "56.91667",
      "lon": "59.95"
    },
    "city": "Первоуральск"
  },
  {
    "coords": {
      "lat": "55.6",
      "lon": "44.55"
    },
    "city": "Перевоз"
  },
  {
    "coords": {
      "lat": "56.41667",
      "lon": "38.175"
    },
    "city": "Пересвет"
  },
  {
    "coords": {
      "lat": "56.7381333",
      "lon": "38.8561528"
    },
    "city": "Переславль-Залесский"
  },
  {
    "coords": {
      "lat": "58.01389",
      "lon": "56.24889"
    },
    "city": "Пермь"
  },
  {
    "coords": {
      "lat": "58.6",
      "lon": "35.81667"
    },
    "city": "Пестово"
  },
  {
    "coords": {
      "lat": "59.88333",
      "lon": "29.9"
    },
    "city": "Петергоф"
  },
  {
    "coords": {
      "lat": "50.13333",
      "lon": "45.21667"
    },
    "city": "Петров Вал"
  },
  {
    "coords": {
      "lat": "51.28333",
      "lon": "108.83333"
    },
    "city": "Петровск-Забайкальский"
  },
  {
    "coords": {
      "lat": "52.31667",
      "lon": "45.38333"
    },
    "city": "Петровск"
  },
  {
    "coords": {
      "lat": "61.79611",
      "lon": "34.34917"
    },
    "city": "Петрозаводск"
  },
  {
    "coords": {
      "lat": "53.01667",
      "lon": "158.65"
    },
    "city": "Петропавловск-Камчатский"
  },
  {
    "coords": {
      "lat": "55.06667",
      "lon": "67.88333"
    },
    "city": "Петухово"
  },
  {
    "coords": {
      "lat": "55.93333",
      "lon": "39.46667"
    },
    "city": "Петушки"
  },
  {
    "coords": {
      "lat": "65.11667",
      "lon": "57.11667"
    },
    "city": "Печора"
  },
  {
    "coords": {
      "lat": "57.81667",
      "lon": "27.6"
    },
    "city": "Печоры"
  },
  {
    "coords": {
      "lat": "59.512684",
      "lon": "34.177483"
    },
    "city": "Пикалёво"
  },
  {
    "coords": {
      "lat": "54.95",
      "lon": "20.21667"
    },
    "city": "Пионерский"
  },
  {
    "coords": {
      "lat": "61.56667",
      "lon": "31.48333"
    },
    "city": "Питкяранта"
  },
  {
    "coords": {
      "lat": "53.7",
      "lon": "37.3"
    },
    "city": "Плавск"
  },
  {
    "coords": {
      "lat": "54.36667",
      "lon": "60.81667"
    },
    "city": "Пласт"
  },
  {
    "coords": {
      "lat": "57.45",
      "lon": "41.5"
    },
    "city": "Плёс"
  },
  {
    "coords": {
      "lat": "51.2",
      "lon": "42.25"
    },
    "city": "Поворино"
  },
  {
    "coords": {
      "lat": "55.42972",
      "lon": "37.54444"
    },
    "city": "Подольск"
  },
  {
    "coords": {
      "lat": "60.912097",
      "lon": "34.167952"
    },
    "city": "Подпорожье"
  },
  {
    "coords": {
      "lat": "61.75",
      "lon": "75.58333"
    },
    "city": "Покачи"
  },
  {
    "coords": {
      "lat": "55.91778",
      "lon": "39.175"
    },
    "city": "Покров"
  },
  {
    "coords": {
      "lat": "61.48333",
      "lon": "129.15"
    },
    "city": "Покровск"
  },
  {
    "coords": {
      "lat": "56.45",
      "lon": "60.18333"
    },
    "city": "Полевской"
  },
  {
    "coords": {
      "lat": "54.86667",
      "lon": "21.1"
    },
    "city": "Полесск"
  },
  {
    "coords": {
      "lat": "54.6",
      "lon": "86.28333"
    },
    "city": "Полысаево"
  },
  {
    "coords": {
      "lat": "67.36583",
      "lon": "32.49806"
    },
    "city": "Полярные Зори"
  },
  {
    "coords": {
      "lat": "69.19833",
      "lon": "33.45611"
    },
    "city": "Полярный"
  },
  {
    "coords": {
      "lat": "49.21667",
      "lon": "143.1"
    },
    "city": "Поронайск"
  },
  {
    "coords": {
      "lat": "57.76667",
      "lon": "29.55"
    },
    "city": "Порхов"
  },
  {
    "coords": {
      "lat": "53.65",
      "lon": "52.13333"
    },
    "city": "Похвистнево"
  },
  {
    "coords": {
      "lat": "52.93333",
      "lon": "33.45"
    },
    "city": "Почеп"
  },
  {
    "coords": {
      "lat": "54.4",
      "lon": "32.45"
    },
    "city": "Починок"
  },
  {
    "coords": {
      "lat": "58.5",
      "lon": "39.11667"
    },
    "city": "Пошехонье"
  },
  {
    "coords": {
      "lat": "54.45",
      "lon": "21.01667"
    },
    "city": "Правдинск"
  },
  {
    "coords": {
      "lat": "57.38333",
      "lon": "41.28333"
    },
    "city": "Приволжск"
  },
  {
    "coords": {
      "lat": "54.73333",
      "lon": "20"
    },
    "city": "Приморск"
  },
  {
    "coords": {
      "lat": "60.366014",
      "lon": "28.613561"
    },
    "city": "Приморск"
  },
  {
    "coords": {
      "lat": "46.05",
      "lon": "38.18333"
    },
    "city": "Приморско-Ахтарск"
  },
  {
    "coords": {
      "lat": "61.035979",
      "lon": "30.115589"
    },
    "city": "Приозерск"
  },
  {
    "coords": {
      "lat": "53.88333",
      "lon": "86.71667"
    },
    "city": "Прокопьевск"
  },
  {
    "coords": {
      "lat": "46.70306",
      "lon": "41.71917"
    },
    "city": "Пролетарск"
  },
  {
    "coords": {
      "lat": "54.87944",
      "lon": "37.21389"
    },
    "city": "Протвино"
  },
  {
    "coords": {
      "lat": "43.750055",
      "lon": "44.033333"
    },
    "city": "Прохладный"
  },
  {
    "coords": {
      "lat": "57.81667",
      "lon": "28.33333"
    },
    "city": "Псков"
  },
  {
    "coords": {
      "lat": "52.01667",
      "lon": "48.8"
    },
    "city": "Пугачёв"
  },
  {
    "coords": {
      "lat": "61.8",
      "lon": "36.53333"
    },
    "city": "Пудож"
  },
  {
    "coords": {
      "lat": "56.33333",
      "lon": "29.36667"
    },
    "city": "Пустошка"
  },
  {
    "coords": {
      "lat": "56.98333",
      "lon": "43.16667"
    },
    "city": "Пучеж"
  },
  {
    "coords": {
      "lat": "59.71667",
      "lon": "30.41667"
    },
    "city": "Пушкин"
  },
  {
    "coords": {
      "lat": "56.01667",
      "lon": "37.85"
    },
    "city": "Пушкино"
  },
  {
    "coords": {
      "lat": "54.83333",
      "lon": "37.61667"
    },
    "city": "Пущино"
  },
  {
    "coords": {
      "lat": "57.066666666667",
      "lon": "27.916666666667"
    },
    "city": "Пыталово"
  },
  {
    "coords": {
      "lat": "60.75",
      "lon": "72.78333"
    },
    "city": "Пыть-Ях"
  },
  {
    "coords": {
      "lat": "44.0499664",
      "lon": "43.0600548"
    },
    "city": "Пятигорск"
  },
  {
    "coords": {
      "lat": "55.99778",
      "lon": "40.32972"
    },
    "city": "Радужный"
  },
  {
    "coords": {
      "lat": "62.13333",
      "lon": "77.46667"
    },
    "city": "Радужный"
  },
  {
    "coords": {
      "lat": "49.8",
      "lon": "129.4"
    },
    "city": "Райчихинск"
  },
  {
    "coords": {
      "lat": "55.56667",
      "lon": "38.21667"
    },
    "city": "Раменское"
  },
  {
    "coords": {
      "lat": "52.66667",
      "lon": "41.88333"
    },
    "city": "Рассказово"
  },
  {
    "coords": {
      "lat": "56.8",
      "lon": "59.91667"
    },
    "city": "Ревда"
  },
  {
    "coords": {
      "lat": "57.36667",
      "lon": "61.4"
    },
    "city": "Реж"
  },
  {
    "coords": {
      "lat": "55.760611",
      "lon": "37.855194"
    },
    "city": "Реутов"
  },
  {
    "coords": {
      "lat": "56.26556",
      "lon": "34.3275"
    },
    "city": "Ржев"
  },
  {
    "coords": {
      "lat": "57.1",
      "lon": "41.73333"
    },
    "city": "Родники"
  },
  {
    "coords": {
      "lat": "53.949166666667",
      "lon": "32.856944444444"
    },
    "city": "Рославль"
  },
  {
    "coords": {
      "lat": "50.2",
      "lon": "39.58333"
    },
    "city": "Россошь"
  },
  {
    "coords": {
      "lat": "47.24056",
      "lon": "39.71056"
    },
    "city": "Ростов-на-Дону"
  },
  {
    "coords": {
      "lat": "57.18333",
      "lon": "39.41667"
    },
    "city": "Ростов"
  },
  {
    "coords": {
      "lat": "55.66361",
      "lon": "39.865"
    },
    "city": "Рошаль"
  },
  {
    "coords": {
      "lat": "52.25",
      "lon": "43.78333"
    },
    "city": "Ртищево"
  },
  {
    "coords": {
      "lat": "51.52722",
      "lon": "81.218806"
    },
    "city": "Рубцовск"
  },
  {
    "coords": {
      "lat": "54.95",
      "lon": "31.06667"
    },
    "city": "Рудня"
  },
  {
    "coords": {
      "lat": "55.698888888889",
      "lon": "36.195277777778"
    },
    "city": "Руза"
  },
  {
    "coords": {
      "lat": "54.06667",
      "lon": "44.95"
    },
    "city": "Рузаевка"
  },
  {
    "coords": {
      "lat": "58.05",
      "lon": "38.83333"
    },
    "city": "Рыбинск"
  },
  {
    "coords": {
      "lat": "54.73333",
      "lon": "39.51667"
    },
    "city": "Рыбное"
  },
  {
    "coords": {
      "lat": "51.56667",
      "lon": "34.68333"
    },
    "city": "Рыльск"
  },
  {
    "coords": {
      "lat": "53.71667",
      "lon": "40.06667"
    },
    "city": "Ряжск"
  },
  {
    "coords": {
      "lat": "54.61667",
      "lon": "39.71667"
    },
    "city": "Рязань"
  },
  {
    "coords": {
      "lat": "45.13361",
      "lon": "33.57722"
    },
    "city": "Саки"
  },
  {
    "coords": {
      "lat": "53.36667",
      "lon": "55.93333"
    },
    "city": "Салават"
  },
  {
    "coords": {
      "lat": "54.23333",
      "lon": "85.8"
    },
    "city": "Салаир"
  },
  {
    "coords": {
      "lat": "66.53333",
      "lon": "66.63333"
    },
    "city": "Салехард"
  },
  {
    "coords": {
      "lat": "46.48333",
      "lon": "41.53333"
    },
    "city": "Сальск"
  },
  {
    "coords": {
      "lat": "53.18333",
      "lon": "50.11667"
    },
    "city": "Самара"
  },
  {
    "coords": {
      "lat": "59.95",
      "lon": "30.31667"
    },
    "city": "Санкт-Петербург"
  },
  {
    "coords": {
      "lat": "54.18333",
      "lon": "45.18333"
    },
    "city": "Саранск"
  },
  {
    "coords": {
      "lat": "56.46667",
      "lon": "53.8"
    },
    "city": "Сарапул"
  },
  {
    "coords": {
      "lat": "51.53333",
      "lon": "46"
    },
    "city": "Саратов"
  },
  {
    "coords": {
      "lat": "54.93333",
      "lon": "43.31667"
    },
    "city": "Саров"
  },
  {
    "coords": {
      "lat": "54.35",
      "lon": "41.91667"
    },
    "city": "Сасово"
  },
  {
    "coords": {
      "lat": "55.05",
      "lon": "59.05"
    },
    "city": "Сатка"
  },
  {
    "coords": {
      "lat": "55.1",
      "lon": "33.25"
    },
    "city": "Сафоново"
  },
  {
    "coords": {
      "lat": "53.1",
      "lon": "91.4"
    },
    "city": "Саяногорск"
  },
  {
    "coords": {
      "lat": "54.11667",
      "lon": "102.16667"
    },
    "city": "Саянск"
  },
  {
    "coords": {
      "lat": "54.9394",
      "lon": "20.1565"
    },
    "city": "Светлогорск"
  },
  {
    "coords": {
      "lat": "45.33083",
      "lon": "42.85111"
    },
    "city": "Светлоград"
  },
  {
    "coords": {
      "lat": "54.68333",
      "lon": "20.13333"
    },
    "city": "Светлый"
  },
  {
    "coords": {
      "lat": "61.10833",
      "lon": "28.85833"
    },
    "city": "Светогорск"
  },
  {
    "coords": {
      "lat": "53.08333",
      "lon": "103.33333"
    },
    "city": "Свирск"
  },
  {
    "coords": {
      "lat": "51.38333",
      "lon": "128.13333"
    },
    "city": "Свободный"
  },
  {
    "coords": {
      "lat": "56.28333",
      "lon": "28.48333"
    },
    "city": "Себеж"
  },
  {
    "coords": {
      "lat": "44.6",
      "lon": "33.53333"
    },
    "city": "Севастополь"
  },
  {
    "coords": {
      "lat": "50.66667",
      "lon": "156.11667"
    },
    "city": "Северо-Курильск"
  },
  {
    "coords": {
      "lat": "55.63333",
      "lon": "109.31667"
    },
    "city": "Северобайкальск"
  },
  {
    "coords": {
      "lat": "64.56667",
      "lon": "39.85"
    },
    "city": "Северодвинск"
  },
  {
    "coords": {
      "lat": "69.06917",
      "lon": "33.41667"
    },
    "city": "Североморск"
  },
  {
    "coords": {
      "lat": "60.15",
      "lon": "59.93333"
    },
    "city": "Североуральск"
  },
  {
    "coords": {
      "lat": "56.6",
      "lon": "84.85"
    },
    "city": "Северск"
  },
  {
    "coords": {
      "lat": "52.15",
      "lon": "34.49389"
    },
    "city": "Севск"
  },
  {
    "coords": {
      "lat": "63.73333",
      "lon": "34.31667"
    },
    "city": "Сегежа"
  },
  {
    "coords": {
      "lat": "53.36944",
      "lon": "34.1"
    },
    "city": "Сельцо"
  },
  {
    "coords": {
      "lat": "47.51667",
      "lon": "40.8"
    },
    "city": "Семикаракорск"
  },
  {
    "coords": {
      "lat": "51.68333",
      "lon": "39.03333"
    },
    "city": "Семилуки"
  },
  {
    "coords": {
      "lat": "56.78944",
      "lon": "44.49056"
    },
    "city": "Семёнов"
  },
  {
    "coords": {
      "lat": "53.96667",
      "lon": "48.8"
    },
    "city": "Сенгилей"
  },
  {
    "coords": {
      "lat": "49.58333",
      "lon": "42.73333"
    },
    "city": "Серафимович"
  },
  {
    "coords": {
      "lat": "55.53333",
      "lon": "45.46667"
    },
    "city": "Сергач"
  },
  {
    "coords": {
      "lat": "56.3",
      "lon": "38.13333"
    },
    "city": "Сергиев Посад"
  },
  {
    "coords": {
      "lat": "52.46667",
      "lon": "44.21667"
    },
    "city": "Сердобск"
  },
  {
    "coords": {
      "lat": "59.58333",
      "lon": "60.56667"
    },
    "city": "Серов"
  },
  {
    "coords": {
      "lat": "54.91667",
      "lon": "37.4"
    },
    "city": "Серпухов"
  },
  {
    "coords": {
      "lat": "60.141613",
      "lon": "30.211879"
    },
    "city": "Сертолово"
  },
  {
    "coords": {
      "lat": "60.1",
      "lon": "29.96667"
    },
    "city": "Сестрорецк"
  },
  {
    "coords": {
      "lat": "52.7",
      "lon": "58.65"
    },
    "city": "Сибай"
  },
  {
    "coords": {
      "lat": "54.98333",
      "lon": "57.68333"
    },
    "city": "Сим"
  },
  {
    "coords": {
      "lat": "44.94806",
      "lon": "34.10417"
    },
    "city": "Симферополь"
  },
  {
    "coords": {
      "lat": "53.98333",
      "lon": "123.93333"
    },
    "city": "Сковородино"
  },
  {
    "coords": {
      "lat": "53.81667",
      "lon": "39.55"
    },
    "city": "Скопин"
  },
  {
    "coords": {
      "lat": "53",
      "lon": "78.65"
    },
    "city": "Славгород"
  },
  {
    "coords": {
      "lat": "55.05",
      "lon": "21.66667"
    },
    "city": "Славск"
  },
  {
    "coords": {
      "lat": "45.25861",
      "lon": "38.12472"
    },
    "city": "Славянск-на-Кубани"
  },
  {
    "coords": {
      "lat": "59.11779",
      "lon": "28.088145"
    },
    "city": "Сланцы"
  },
  {
    "coords": {
      "lat": "58.724167",
      "lon": "50.161167"
    },
    "city": "Слободской"
  },
  {
    "coords": {
      "lat": "51.66667",
      "lon": "103.7"
    },
    "city": "Слюдянка"
  },
  {
    "coords": {
      "lat": "54.78278",
      "lon": "32.04528"
    },
    "city": "Смоленск"
  },
  {
    "coords": {
      "lat": "56.08333",
      "lon": "60.73333"
    },
    "city": "Снежинск"
  },
  {
    "coords": {
      "lat": "69.19417",
      "lon": "33.23306"
    },
    "city": "Снежногорск"
  },
  {
    "coords": {
      "lat": "55.99",
      "lon": "40.01667"
    },
    "city": "Собинка"
  },
  {
    "coords": {
      "lat": "55.08333",
      "lon": "21.88333"
    },
    "city": "Советск"
  },
  {
    "coords": {
      "lat": "57.601306",
      "lon": "48.938611"
    },
    "city": "Советск"
  },
  {
    "coords": {
      "lat": "53.93333",
      "lon": "37.63333"
    },
    "city": "Советск"
  },
  {
    "coords": {
      "lat": "48.966373",
      "lon": "140.285189"
    },
    "city": "Советская Гавань"
  },
  {
    "coords": {
      "lat": "61.36667",
      "lon": "63.56667"
    },
    "city": "Советский"
  },
  {
    "coords": {
      "lat": "59.46667",
      "lon": "40.11667"
    },
    "city": "Сокол"
  },
  {
    "coords": {
      "lat": "59.08333",
      "lon": "42.28333"
    },
    "city": "Солигалич"
  },
  {
    "coords": {
      "lat": "59.63333",
      "lon": "56.76667"
    },
    "city": "Соликамск"
  },
  {
    "coords": {
      "lat": "56.185114",
      "lon": "36.977618"
    },
    "city": "Солнечногорск"
  },
  {
    "coords": {
      "lat": "51.16667",
      "lon": "54.98333"
    },
    "city": "Соль-Илецк"
  },
  {
    "coords": {
      "lat": "61.33333",
      "lon": "46.91667"
    },
    "city": "Сольвычегодск"
  },
  {
    "coords": {
      "lat": "58.11667",
      "lon": "30.31667"
    },
    "city": "Сольцы"
  },
  {
    "coords": {
      "lat": "52.43333",
      "lon": "53.15"
    },
    "city": "Сорочинск"
  },
  {
    "coords": {
      "lat": "54",
      "lon": "90.25"
    },
    "city": "Сорск"
  },
  {
    "coords": {
      "lat": "61.7",
      "lon": "30.66667"
    },
    "city": "Сортавала"
  },
  {
    "coords": {
      "lat": "54.05",
      "lon": "35.96667"
    },
    "city": "Сосенский"
  },
  {
    "coords": {
      "lat": "56.2543",
      "lon": "51.2812"
    },
    "city": "Сосновка"
  },
  {
    "coords": {
      "lat": "56.13333",
      "lon": "93.36667"
    },
    "city": "Сосновоборск"
  },
  {
    "coords": {
      "lat": "59.9",
      "lon": "29.08611"
    },
    "city": "Сосновый Бор"
  },
  {
    "coords": {
      "lat": "63.58333",
      "lon": "53.93333"
    },
    "city": "Сосногорск"
  },
  {
    "coords": {
      "lat": "43.58528",
      "lon": "39.72028"
    },
    "city": "Сочи"
  },
  {
    "coords": {
      "lat": "54.409808",
      "lon": "34.018992"
    },
    "city": "Спас-Деменск"
  },
  {
    "coords": {
      "lat": "55.13333",
      "lon": "40.16667"
    },
    "city": "Спас-Клепики"
  },
  {
    "coords": {
      "lat": "44.6",
      "lon": "132.81667"
    },
    "city": "Спасск-Дальний"
  },
  {
    "coords": {
      "lat": "54.4",
      "lon": "40.38333"
    },
    "city": "Спасск-Рязанский"
  },
  {
    "coords": {
      "lat": "53.93333",
      "lon": "43.18333"
    },
    "city": "Спасск"
  },
  {
    "coords": {
      "lat": "67.458",
      "lon": "153.706"
    },
    "city": "Среднеколымск"
  },
  {
    "coords": {
      "lat": "56.98333",
      "lon": "60.46667"
    },
    "city": "Среднеуральск"
  },
  {
    "coords": {
      "lat": "52.25",
      "lon": "117.71667"
    },
    "city": "Сретенск"
  },
  {
    "coords": {
      "lat": "45.03333",
      "lon": "41.96667"
    },
    "city": "Ставрополь"
  },
  {
    "coords": {
      "lat": "55.8",
      "lon": "38.18333"
    },
    "city": "Старая Купавна"
  },
  {
    "coords": {
      "lat": "57.98333",
      "lon": "31.35"
    },
    "city": "Старая Русса"
  },
  {
    "coords": {
      "lat": "56.51667",
      "lon": "34.93333"
    },
    "city": "Старица"
  },
  {
    "coords": {
      "lat": "52.58333",
      "lon": "32.76667"
    },
    "city": "Стародуб"
  },
  {
    "coords": {
      "lat": "45.02917",
      "lon": "35.08861"
    },
    "city": "Старый Крым"
  },
  {
    "coords": {
      "lat": "51.29806",
      "lon": "37.835"
    },
    "city": "Старый Оскол"
  },
  {
    "coords": {
      "lat": "53.63333",
      "lon": "55.95"
    },
    "city": "Стерлитамак"
  },
  {
    "coords": {
      "lat": "60.73333",
      "lon": "77.58333"
    },
    "city": "Стрежевой"
  },
  {
    "coords": {
      "lat": "50.78333",
      "lon": "36.48333"
    },
    "city": "Строитель"
  },
  {
    "coords": {
      "lat": "56.37333",
      "lon": "38.585"
    },
    "city": "Струнино"
  },
  {
    "coords": {
      "lat": "54.88694",
      "lon": "38.07722"
    },
    "city": "Ступино"
  },
  {
    "coords": {
      "lat": "54.11667",
      "lon": "36.5"
    },
    "city": "Суворов"
  },
  {
    "coords": {
      "lat": "44.85139",
      "lon": "34.9725"
    },
    "city": "Судак"
  },
  {
    "coords": {
      "lat": "51.190694",
      "lon": "35.27083"
    },
    "city": "Суджа"
  },
  {
    "coords": {
      "lat": "55.95",
      "lon": "40.86667"
    },
    "city": "Судогда"
  },
  {
    "coords": {
      "lat": "56.42111",
      "lon": "40.44889"
    },
    "city": "Суздаль"
  },
  {
    "coords": {
      "lat": "43.313475",
      "lon": "45.051581"
    },
    "city": "Сунжа"
  },
  {
    "coords": {
      "lat": "62.08333",
      "lon": "32.36667"
    },
    "city": "Суоярви"
  },
  {
    "coords": {
      "lat": "53.01667",
      "lon": "32.4"
    },
    "city": "Сураж"
  },
  {
    "coords": {
      "lat": "61.25",
      "lon": "73.43333"
    },
    "city": "Сургут"
  },
  {
    "coords": {
      "lat": "48.6",
      "lon": "42.85"
    },
    "city": "Суровикино"
  },
  {
    "coords": {
      "lat": "53.08333",
      "lon": "45.7"
    },
    "city": "Сурск"
  },
  {
    "coords": {
      "lat": "62.78333",
      "lon": "148.15"
    },
    "city": "Сусуман"
  },
  {
    "coords": {
      "lat": "54.1",
      "lon": "35.35"
    },
    "city": "Сухиничи"
  },
  {
    "coords": {
      "lat": "56.90583",
      "lon": "62.03417"
    },
    "city": "Сухой Лог"
  },
  {
    "coords": {
      "lat": "53.16667",
      "lon": "48.46667"
    },
    "city": "Сызрань"
  },
  {
    "coords": {
      "lat": "61.66667",
      "lon": "50.81667"
    },
    "city": "Сыктывкар"
  },
  {
    "coords": {
      "lat": "56.5",
      "lon": "60.81667"
    },
    "city": "Сысерть"
  },
  {
    "coords": {
      "lat": "55.83333",
      "lon": "34.28333"
    },
    "city": "Сычёвка"
  },
  {
    "coords": {
      "lat": "60.137057",
      "lon": "32.561279"
    },
    "city": "Сясьстрой"
  },
  {
    "coords": {
      "lat": "58.05",
      "lon": "65.26667"
    },
    "city": "Тавда"
  },
  {
    "coords": {
      "lat": "47.23917",
      "lon": "38.88333"
    },
    "city": "Таганрог"
  },
  {
    "coords": {
      "lat": "56.06667",
      "lon": "85.61667"
    },
    "city": "Тайга"
  },
  {
    "coords": {
      "lat": "55.93333",
      "lon": "98.01667"
    },
    "city": "Тайшет"
  },
  {
    "coords": {
      "lat": "56.73333",
      "lon": "37.53333"
    },
    "city": "Талдом"
  },
  {
    "coords": {
      "lat": "57.0125",
      "lon": "63.72917"
    },
    "city": "Талица"
  },
  {
    "coords": {
      "lat": "52.71667",
      "lon": "41.43333"
    },
    "city": "Тамбов"
  },
  {
    "coords": {
      "lat": "56.902383",
      "lon": "74.37079"
    },
    "city": "Тара"
  },
  {
    "coords": {
      "lat": "64.91472",
      "lon": "77.77278"
    },
    "city": "Тарко-Сале"
  },
  {
    "coords": {
      "lat": "54.71667",
      "lon": "37.18333"
    },
    "city": "Таруса"
  },
  {
    "coords": {
      "lat": "55.21667",
      "lon": "75.96667"
    },
    "city": "Татарск"
  },
  {
    "coords": {
      "lat": "52.76667",
      "lon": "87.86667"
    },
    "city": "Таштагол"
  },
  {
    "coords": {
      "lat": "56.8578278",
      "lon": "35.9219278"
    },
    "city": "Тверь"
  },
  {
    "coords": {
      "lat": "43.449437",
      "lon": "41.74382"
    },
    "city": "Теберда"
  },
  {
    "coords": {
      "lat": "56.85",
      "lon": "40.55"
    },
    "city": "Тейково"
  },
  {
    "coords": {
      "lat": "54.63333",
      "lon": "43.21667"
    },
    "city": "Темников"
  },
  {
    "coords": {
      "lat": "45.26667",
      "lon": "37.38333"
    },
    "city": "Темрюк"
  },